stop_id,stop_code,stop_name,stop_desc,stop_lat,stop_lon,zone_id,stop_url,location_type,parent_station
822008203,8203,Visitor Centre,,53.36469,-6.33167,,,,
822008204,8204,Áras an Uachtaráin,,53.35938,-6.32384,,,,
822008205,8205,Dublin Zoo,,53.35173,-6.30548,,,,
822008206,8206,Park Gates,,53.34884,-6.29777,,,,
822008208,8208,Park Gates,,53.348995,-6.298737,,,,
822008209,8209,Dublin Zoo,,53.35169,-6.3057,,,,
822008210,8210,Áras an Uachtaráin,,53.358951,-6.32316,,,,
82202B008257,8257,Saint Kevin's College,,53.385027,-6.278198,,,,
8220B008367,8367,Broombridge,,53.372326,-6.299488,,,,
8220DB000002,2,Parnell Square West,,53.3522443611383,-6.26372321891887,,,,
8220DB000003,3,Parnell Square West,,53.352309,-6.263811,,,,
8220DB000005,5,Parnell Square West,,53.3525736395204,-6.26411543286632,,,,
8220DB000007,7,Parnell Square West,,53.352841,-6.26457,,,,
8220DB000008,8,Parnell Square West,,53.353272,-6.265184,,,,
8220DB000010,10,Parnell Square West,,53.3533921036473,-6.26538912389954,,,,
8220DB000011,11,St Joseph's Parade,,53.3568152335295,-6.26467919507526,,,,
8220DB000012,12,Dorset Street Upper,,53.357107,-6.264382,,,,
8220DB000014,14,Eccles Place,,53.358531,-6.262777,,,,
8220DB000015,15,Dorset Street Lower,,53.360267,-6.260978,,,,
8220DB000016,16,John Paul Park,,53.36644,-6.30565,,,,
8220DB000017,17,Drumcondra Station,,53.363078,-6.258399,,,,
8220DB000018,18,Archbishop's House,,53.365856,-6.255957,,,,
8220DB000019,19,Botanic Avenue,,53.367235,-6.2556,,,,
8220DB000021,21,Drumcondra Village,,53.370101,-6.254311,,,,
8220DB000022,22,Home Farm Road,,53.3735036097406,-6.25280375269006,,,,
8220DB000023,23,Ferguson Road,,53.3742282800791,-6.256261004167,,,,
8220DB000024,24,Walsh Road,,53.3751331588841,-6.26037234812319,,,,
8220DB000025,25,Rathlin Road,,53.3758994661474,-6.26361773641709,,,,
8220DB000027,27,Ballymun Road,,53.3794389600107,-6.26658526126003,,,,
8220DB000028,28,Hampstead Avenue,,53.381578637628,-6.26600227077738,,,,
8220DB000029,29,Albert College Park,,53.3834882529457,-6.26566910125417,,,,
8220DB000030,30,Ventry Park,,53.370331900193,-6.30460116922913,,,,
8220DB000031,31,St Pappin's Road,,53.3860332259144,-6.268858077275,,,,
8220DB000032,32,Stormanstown Road,,53.3861955680738,-6.2713772010414,,,,
8220DB000033,33,Glasnevin Drive,,53.3887179243058,-6.27177114122451,,,,
8220DB000035,35,Dean Swift Road,,53.3862067871013,-6.270910692541,,,,
8220DB000036,36,Maolbuille Road,,53.386126850411,-6.26787706978339,,,,
8220DB000037,37,DCU Ballymun Road,,53.385346401194,-6.26488698131794,,,,
8220DB000038,38,Hampstead Avenue,,53.3822365941636,-6.26550952120506,,,,
8220DB000039,39,The Rise,,53.3804141869323,-6.26565875906589,,,,
8220DB000040,40,Stella Avenue,,53.3766607654507,-6.26466896852794,,,,
8220DB000041,41,Home Farm Road,,53.3755592683258,-6.26185800624669,,,,
8220DB000042,42,Corpus Christi NS,,53.3746502734575,-6.25746118972134,,,,
8220DB000043,43,Achill Road,,53.3738612202267,-6.25390131043392,,,,
8220DB000044,44,Home Farm Road East,,53.373017,-6.252132,,,,
8220DB000045,45,Drumcondra Village,,53.369936,-6.254107,,,,
8220DB000046,46,Botanic Avenue,,53.367131,-6.255259,,,,
8220DB000047,47,Archbishop's House,,53.363916,-6.257298,,,,
8220DB000048,48,Drumcondra Station,,53.362257,-6.258808,,,,
8220DB000049,49,Dorset Street Lower,,53.360004,-6.260853,,,,
8220DB000051,51,Eccles Place,,53.35781,-6.263272,,,,
8220DB000052,52,Dorset Street Upper,,53.356661,-6.264565,,,,
8220DB000053,53,Synnott Row,,53.360014,-6.262791,,,,
8220DB000054,54,The Mater Hospital,,53.360222,-6.265908,,,,
8220DB000055,55,Mountjoy Prison,,53.360412,-6.26847,,,,
8220DB000056,56,Phibsborough Church,,53.36076,-6.276374,,,,
8220DB000057,57,Dalymount,,53.36076,-6.2766,,,,
8220DB000058,58,Phibsborough Luas,,53.360946,-6.281204,,,,
8220DB000059,59,Cabra Road,,53.361018,-6.284943,,,,
8220DB000060,60,Quarry Road,,53.361279,-6.289364,,,,
8220DB000063,63,Fassaugh Avenue,,53.366792,-6.29275,,,,
8220DB000064,64,Cabra West Church,,53.367089,-6.295233,,,,
8220DB000065,65,Dingle Road,,53.367255,-6.298051,,,,
8220DB000066,66,Killala Road,,53.367275,-6.30074,,,,
8220DB000068,68,Ventry Drive,,53.369078,-6.304245,,,,
8220DB000069,69,Carnlough Road,,53.37137,-6.30327,,,,
8220DB000071,71,Ventry Park,,53.370258,-6.304439,,,,
8220DB000072,72,Ventry Drive,,53.36897,-6.304265,,,,
8220DB000073,73,Killala Road,,53.367392,-6.300721,,,,
8220DB000074,74,Cabra West Church,,53.3672,-6.295499,,,,
8220DB000075,75,Fionnbarra GAA,,53.366547,-6.291317,,,,
8220DB000077,77,Quarry Road,,53.361309,-6.289574,,,,
8220DB000078,78,Cabra Road,,53.361149,-6.284066,,,,
8220DB000079,79,Phibsborough Luas,,53.361021,-6.280796,,,,
8220DB000080,80,Phibsborough Church,,53.360863,-6.276054,,,,
8220DB000081,81,Phibsborough,,53.360876,-6.271967,,,,
8220DB000082,82,Doyle's Corner,,53.360798,-6.271549,,,,
8220DB000083,83,The Mater Hospital,,53.36029,-6.26529,,,,
8220DB000084,84,Synnott Row,,53.360163,-6.263702,,,,
8220DB000085,85,Home Farm Road East,,53.373958,-6.251913,,,,
8220DB000090,90,Albert College Court,,53.3863855316738,-6.26526567275522,,,,
8220DB000091,91,Ballymun Road NS,,53.3884278896483,-6.26540814207682,,,,
8220DB000092,92,Ballymun Library,,53.389837,-6.264674,,,,
8220DB000093,93,Gateway Avenue,,53.392302,-6.264153,,,,
8220DB000094,94,Civic Centre,,53.3960347624115,-6.26437695995448,,,,
8220DB000102,102,Balbutcher Lane,,53.397773070166,-6.26771985697013,,,,
8220DB000104,104,Poppintree Parade,,53.399771,-6.276819,,,,
8220DB000105,105,Belclare Park,,53.4029363966818,-6.28169269646949,,,,
8220DB000107,107,Crannogue Road,,53.4023798987989,-6.28049690990612,,,,
8220DB000110,110,Ard na Meala,,53.3979386409613,-6.26860038147331,,,,
8220DB000112,112,Civic Centre,,53.3961544015462,-6.2639510403018,,,,
8220DB000113,113,Trinity Comp School,,53.3922679629262,-6.26370325464247,,,,
8220DB000114,114,Ballymun Road,,53.3913333220544,-6.26371122925237,,,,
8220DB000115,115,Ballymun Road Church,,53.3879640919871,-6.26503610048148,,,,
8220DB000119,119,Whitehall Village,,53.375191,-6.250766,,,,
8220DB000126,126,Nursing Home,,53.399096,-6.264087,,,,
8220DB000127,127,Nursing Home,,53.3991075304805,-6.26368042823971,,,,
8220DB000128,128,Glasnevin Avenue,,53.389268,-6.26569,,,,
8220DB000129,129,Glasnevin Drive,,53.38989,-6.271423,,,,
8220DB000130,130,Glasnevin Park,,53.390092,-6.274181,,,,
8220DB000131,131,Willow Park Road,,53.390386,-6.278349,,,,
8220DB000132,132,Beneavin Park,,53.3905207424932,-6.2827191236982,,,,
8220DB000134,134,Grove Road,,53.393095,-6.286074,,,,
8220DB000136,136,McKee Road North,,53.3943802013894,-6.28985659650009,,,,
8220DB000137,137,McKee Road,,53.3923167196303,-6.29263079481432,,,,
8220DB000138,138,St Canice's BNS,,53.3899950092672,-6.29180657264741,,,,
8220DB000139,139,Grove Park Road,,53.390602,-6.28646,,,,
8220DB000140,140,Beneavin Park,,53.3906344923641,-6.28250404674216,,,,
8220DB000141,141,Willow Park Road,,53.3904450850916,-6.27809124468715,,,,
8220DB000142,142,Glasnevin Park,,53.3901982852621,-6.27407172195534,,,,
8220DB000143,143,Willow Park Avenue,,53.389876708405,-6.2692433699802,,,,
8220DB000146,146,Na Fianna GAA Club,,53.3750401276319,-6.26509558567468,,,,
8220DB000147,147,Tolka Bridge,,53.37248,-6.265831,,,,
8220DB000148,148,Mobhi Road,,53.3706701663468,-6.26806850705825,,,,
8220DB000149,149,Tolka Bridge,,53.373139,-6.265985,,,,
8220DB000150,150,Na Fianna GAA Club,,53.3756588461862,-6.26499528302822,,,,
8220DB000151,151,Botanic Gardens,,53.3719552600192,-6.26929382771155,,,,
8220DB000153,153,Met Éireann,,53.375689,-6.270134,,,,
8220DB000154,154,Cremore Avenue,,53.377259,-6.275557,,,,
8220DB000155,155,Old Finglas Road,,53.37792,-6.27951,,,,
8220DB000156,156,Northland Grove,,53.378623,-6.281665,,,,
8220DB000157,157,Tolka Estate,,53.380412,-6.281638,,,,
8220DB000158,158,Griffith Road,,53.381482,-6.283564,,,,
8220DB000159,159,Griffith Parade,,53.3827837191573,-6.28283511246108,,,,
8220DB000163,163,Ferndale Avenue,,53.387151,-6.279637,,,,
8220DB000170,170,Ferndale Avenue,,53.386966,-6.279269,,,,
8220DB000173,173,Glasnamana Place,,53.382122,-6.280547,,,,
8220DB000174,174,Tolka Estate,,53.3806803549474,-6.28095056210771,,,,
8220DB000175,175,Northland Grove,,53.378424,-6.281568,,,,
8220DB000176,176,Old Finglas Road,,53.378032,-6.279299,,,,
8220DB000177,177,Glasilawn Road,,53.380468,-6.276224,,,,
8220DB000178,178,Ballygall Road East,,53.38189,-6.276347,,,,
8220DB000179,179,Glasilawn Road,,53.380303,-6.276005,,,,
8220DB000180,180,Cremore Crescent,,53.37844,-6.276396,,,,
8220DB000181,181,Cremore Avenue,,53.37715,-6.274224,,,,
8220DB000182,182,Met Éireann,,53.375657,-6.269805,,,,
8220DB000183,183,Botanic Gardens,,53.372316,-6.268753,,,,
8220DB000184,184,Fairfield Road,,53.369704,-6.268979,,,,
8220DB000185,185,Wayfinding Centre,,53.368101,-6.270021,,,,
8220DB000186,186,Hart's Corner,,53.365355,-6.27159,,,,
8220DB000187,187,Munster Street,,53.362734,-6.272447,,,,
8220DB000188,188,Doyle's Corner,,53.360121,-6.272583,,,,
8220DB000189,189,Phibsborough Road,,53.357167,-6.273469,,,,
8220DB000190,190,Broadstone,,53.3551257304144,-6.27337107400574,,,,
8220DB000191,191,Western Way,,53.3550179485755,-6.26903378050291,,,,
8220DB000192,192,Mountjoy Street,,53.356397,-6.268077,,,,
8220DB000193,193,Clune Road,,53.3911963059787,-6.29410403487394,,,,
8220DB000194,194,Western Way,,53.3550406495518,-6.26997931103774,,,,
8220DB000195,195,Broadstone,,53.3550117778767,-6.27357097973096,,,,
8220DB000196,196,Phibsborough Road,,53.356884,-6.273751,,,,
8220DB000197,197,Monck Place,,53.358953,-6.273231,,,,
8220DB000198,198,Doyle's Corner,,53.361625,-6.272838,,,,
8220DB000199,199,Munster Street,,53.363622,-6.272291,,,,
8220DB000200,200,Prospect Way,,53.367423,-6.271596,,,,
8220DB000201,201,Wayfinding Centre,,53.368291,-6.270119,,,,
8220DB000202,202,Fairfield Road,,53.37008,-6.268904,,,,
8220DB000203,203,Whitehall Village,,53.376393,-6.25001,,,,
8220DB000204,204,Plunket College,,53.379588,-6.246662,,,,
8220DB000205,205,Iveragh Road,,53.381375,-6.245326,,,,
8220DB000206,206,Larkhill Road,,53.383546,-6.247477,,,,
8220DB000207,207,Larkhill Road,,53.384822,-6.249875,,,,
8220DB000208,208,Glendun Road,,53.3866539303158,-6.24795040815756,,,,
8220DB000209,209,Larkhill Road,,53.387271,-6.24591,,,,
8220DB000210,210,Crestfield Road,,53.387594,-6.248318,,,,
8220DB000211,211,Falcarragh Road,,53.384281,-6.24916,,,,
8220DB000212,212,Larkhill Road,,53.383196,-6.246258,,,,
8220DB000213,213,Iveragh Road,,53.38145,-6.244872,,,,
8220DB000214,214,Plunket College,,53.379408,-6.246655,,,,
8220DB000215,215,Whitehall Cross,,53.381872,-6.242449,,,,
8220DB000216,216,Yellow Road,,53.382331,-6.238191,,,,
8220DB000217,217,Grace Park Court,,53.384324,-6.236801,,,,
8220DB000218,218,Shantalla Road,,53.385924,-6.233788,,,,
8220DB000220,220,Shantalla Bridge,,53.38794,-6.244981,,,,
8220DB000228,228,Shanliss Road,,53.391877,-6.25972,,,,
8220DB000233,233,Shantalla Road,,53.385821,-6.233537,,,,
8220DB000234,234,Beaumont Grove,,53.384951,-6.234821,,,,
8220DB000235,235,Grace Park Court,,53.383297,-6.237249,,,,
8220DB000236,236,Yellow Road,,53.382025,-6.238159,,,,
8220DB000237,237,Whitehall Cross,,53.382032,-6.243525,,,,
8220DB000242,242,Coolgreena Road,,53.385655,-6.23201,,,,
8220DB000243,243,Beaumont Crescent,,53.38578,-6.22954,,,,
8220DB000244,244,Skelly's Lane,,53.384998,-6.223498,,,,
8220DB000245,245,Whitethorn Rise,,53.384472,-6.219567,,,,
8220DB000246,246,Artaine Castle,,53.385151,-6.216231,,,,
8220DB000247,247,Maryfield Drive,,53.386976,-6.214501,,,,
8220DB000248,248,Maryfield Drive,,53.3855645601725,-6.21446963135785,,,,
8220DB000249,249,Artaine Castle,,53.384934,-6.21615,,,,
8220DB000250,250,Whitethorn Rise,,53.384419,-6.220245,,,,
8220DB000251,251,Skelly's Lane,,53.384832,-6.22322,,,,
8220DB000252,252,Beaumont Crescent,,53.385568,-6.22797,,,,
8220DB000253,253,Beaumont Hospital,,53.389963,-6.224299,,,,
8220DB000254,254,Beaumont Hospital,,53.390265,-6.224106,,,,
8220DB000255,255,Coolgreena Road,,53.385594,-6.231532,,,,
8220DB000261,261,Parnell Square East,,53.354056,-6.262853,,,,
8220DB000262,262,Parnell Square East,,53.353947,-6.262753,,,,
8220DB000263,263,Parnell Square East,,53.353746,-6.262505,,,,
8220DB000264,264,Parnell Square East,,53.353316,-6.26197,,,,
8220DB000265,265,Parnell Square East,,53.353122,-6.261658,,,,
8220DB000270,270,O'Connell Street Upper,,53.350623,-6.260424,,,,
8220DB000271,271,O'Connell Street Lower,,53.348596,-6.259485,,,,
8220DB000273,273,O'Connell Bridge,,53.347247,-6.258819,,,,
8220DB000274,274,O'Connell Street Upper,,53.3503490838222,-6.26072086862175,,,,
8220DB000276,276,River Road,,53.377402,-6.331797,,,,
8220DB000277,277,O'Connell Street Upper,,53.350822325818,-6.26050631978692,,,,
8220DB000278,278,O'Connell Street Upper,,53.351561,-6.261227,,,,
8220DB000279,279,O'Connell Street Upper,,53.350132,-6.26061,,,,
8220DB000281,281,O'Connell Street Upper,,53.351343,-6.261116,,,,
8220DB000284,284,Rathbourne Avenue,,53.377283,-6.328389,,,,
8220DB000286,286,Cathal Brugha Street,,53.352171,-6.259911,,,,
8220DB000288,288,Irish Life,,53.349169,-6.255602,,,,
8220DB000289,289,Abbey Street,,53.349035,-6.256298,,,,
8220DB000292,292,Abbey Street Lower,,53.3492,-6.255255,,,,
8220DB000297,297,Eden Quay,,53.3481432679358,-6.25677012601713,,,,
8220DB000298,298,Eden Quay,,53.348201,-6.256392,,,,
8220DB000299,299,Eden Quay,,53.348242,-6.256135,,,,
8220DB000300,300,Eden Quay,,53.348299,-6.255757,,,,
8220DB000301,301,Eden Quay,,53.347988,-6.256626,,,,
8220DB000302,302,Eden Quay,,53.348038,-6.256339,,,,
8220DB000303,303,Eden Quay,,53.34806,-6.255992,,,,
8220DB000307,307,O'Donovan Road,,53.334577,-6.280087,,,,
8220DB000308,308,Oscar Square,,53.336771,-6.279534,,,,
8220DB000309,309,Ardee Street,,53.33784,-6.27895,,,,
8220DB000312,312,Wellington Quay,,53.3454764728264,-6.2662061554843,,,,
8220DB000315,315,Bachelors Walk,,53.347028,-6.261667,,,,
8220DB000317,317,Westmoreland Street,,53.3465259444496,-6.25926936624482,,,,
8220DB000319,319,Westmoreland Street,,53.34622,-6.25929,,,,
8220DB000320,320,Westmoreland Street,,53.3456456323889,-6.25930523253448,,,,
8220DB000322,322,Gulliver's Retail Park,,53.4042549924644,-6.26535084532186,,,,
8220DB000325,325,Aston Quay,,53.3466970502533,-6.2599082595371,,,,
8220DB000328,328,Aston Quay,,53.346333,-6.26144,,,,
8220DB000329,329,Aston Quay,,53.346274,-6.261683,,,,
8220DB000333,333,D'Olier Street,,53.346692,-6.258346,,,,
8220DB000334,334,D'Olier Street,,53.346581,-6.258126,,,,
8220DB000335,335,D'Olier Street,,53.346361,-6.257849,,,,
8220DB000336,336,D'Olier Street,,53.346252,-6.257719,,,,
8220DB000340,340,Townsend Street,,53.345975,-6.256017,,,,
8220DB000345,345,Pearse Street Garda Station,,53.345476,-6.256293,,,,
8220DB000350,350,Lombard Street East,,53.345632,-6.249768,,,,
8220DB000351,351,Erne Street,,53.3434182647907,-6.24530817378361,,,,
8220DB000352,352,Pearse Square,,53.342989,-6.242412,,,,
8220DB000353,353,Grand Canal Quay,,53.342645,-6.239798,,,,
8220DB000354,354,Ringsend Road,,53.3422358280174,-6.2364356898267,,,,
8220DB000355,355,Ringsend Depot,,53.341817,-6.233059,,,,
8220DB000356,356,Ringsend Village,,53.341903,-6.226717,,,,
8220DB000357,357,Irishtown Road,,53.339171,-6.223122,,,,
8220DB000358,358,Sean Moore Road,,53.339027,-6.21709,,,,
8220DB000369,369,Sean Moore Road,,53.340791,-6.212528,,,,
8220DB000371,371,Irishtown Road,,53.338613,-6.223055,,,,
8220DB000372,372,Star of the Sea,,53.3354881469499,-6.21965567144901,,,,
8220DB000373,373,Farney Park,,53.3342753312713,-6.21788927259654,,,,
8220DB000374,374,Sandymount,,53.3332284399006,-6.21640134211922,,,,
8220DB000375,375,Dromard Terrace,,53.3340611346518,-6.2143845130625,,,,
8220DB000381,381,St John's Church,,53.3243237661065,-6.21237419337667,,,,
8220DB000385,385,Newgrove Avenue,,53.332351,-6.211228,,,,
8220DB000387,387,Sandymount,,53.332499,-6.215741,,,,
8220DB000388,388,Farney Park,,53.334509,-6.21848,,,,
8220DB000389,389,Star of the Sea,,53.33529,-6.219634,,,,
8220DB000390,390,Tritonville Road,,53.3376299137845,-6.2222394793377,,,,
8220DB000391,391,Saint Brendan's Cottages,,53.340064,-6.223925,,,,
8220DB000392,392,Ringsend Village,,53.341734,-6.227415,,,,
8220DB000393,393,Tritonville Road,,53.336904,-6.222375,,,,
8220DB000395,395,Ringsend Road,,53.34194,-6.235277,,,,
8220DB000396,396,Grand Canal Quay,,53.342442,-6.239476,,,,
8220DB000397,397,Pearse Square,,53.342786,-6.242015,,,,
8220DB000398,398,Erne Street,,53.3432949350358,-6.24547844686789,,,,
8220DB000399,399,Pearse Street,,53.343867,-6.248309,,,,
8220DB000400,400,Shaw Street,,53.344849,-6.25339,,,,
8220DB000403,403,Nassau Street,,53.342714,-6.256706,,,,
8220DB000404,404,Nassau Street,,53.342663,-6.256348,,,,
8220DB000405,405,Nassau Street,,53.3424816891816,-6.2556043726643,,,,
8220DB000406,406,Nassau Street,,53.342606,-6.256125,,,,
8220DB000407,407,Custom House,,53.348335,-6.253893,,,,
8220DB000408,408,Merrion Square North,,53.3409707826238,-6.25001923957642,,,,
8220DB000409,409,Holles Street,,53.3401367313169,-6.24769559556976,,,,
8220DB000410,410,Mount Street Lower,,53.338814,-6.24389,,,,
8220DB000411,411,Mount Street Bridge,,53.338117,-6.241772,,,,
8220DB000412,412,Haddington Road,,53.335256,-6.237279,,,,
8220DB000413,413,Lansdowne Park,,53.334094,-6.236546,,,,
8220DB000414,414,Lansdowne Road,,53.331574,-6.234473,,,,
8220DB000415,415,American Embassy,,53.330338,-6.232948,,,,
8220DB000416,416,RDS Ballsbridge,,53.3286399201175,-6.22936956914703,,,,
8220DB000417,417,Merrion Road,,53.3277,-6.22597,,,,
8220DB000418,418,British Embassy,,53.32572,-6.223395,,,,
8220DB000419,419,Shrewsbury Park,,53.323995,-6.22045,,,,
8220DB000420,420,Merlyn Road,,53.321911,-6.217504,,,,
8220DB000421,421,Merrion View Avenue,,53.3200051794214,-6.21449112042242,,,,
8220DB000422,422,St Vincent's Hospital,,53.318064191863,-6.21032428070782,,,,
8220DB000423,423,Herbert Avenue,,53.317149,-6.207406,,,,
8220DB000424,424,Merrion Gates,,53.315394,-6.203727,,,,
8220DB000476,476,Merrion Gates,,53.315751,-6.204763,,,,
8220DB000477,477,Herbert Avenue,,53.316863,-6.206952,,,,
8220DB000478,478,St Vincent's Hospital,,53.3181142989155,-6.21126782530888,,,,
8220DB000479,479,Merrion Centre,,53.319144,-6.213401,,,,
8220DB000480,480,Netherlands Embassy,,53.32085,-6.216287,,,,
8220DB000481,481,Wanderers FC,,53.322761,-6.21883,,,,
8220DB000482,482,Shrewsbury Road,,53.324728,-6.221965,,,,
8220DB000483,483,British Embassy,,53.325944,-6.223972,,,,
8220DB000485,485,RDS Ballsbridge,,53.328252,-6.228635,,,,
8220DB000486,486,RDS Ballsbridge,,53.328329,-6.228992,,,,
8220DB000487,487,American Embassy,,53.330855,-6.233902,,,,
8220DB000488,488,Lansdowne Park,,53.333099,-6.236077,,,,
8220DB000489,489,St Mary's Road South,,53.334942,-6.237352,,,,
8220DB000490,490,Haddington Road,,53.336574,-6.238907,,,,
8220DB000491,491,Mount Street Bridge,,53.337814,-6.241333,,,,
8220DB000492,492,Mount Street Lower,,53.338585,-6.243614,,,,
8220DB000493,493,Holles Street,,53.3398534163774,-6.24737682273898,,,,
8220DB000494,494,Clare Street,,53.3414355833565,-6.25168225233917,,,,
8220DB000495,495,Pearse Station,,53.343591,-6.249747,,,,
8220DB000496,496,Busáras,,53.3494968761341,-6.25222357868164,,,,
8220DB000497,497,Connolly Station,,53.350526,-6.250694,,,,
8220DB000513,513,Summerhill,,53.355212,-6.253973,,,,
8220DB000515,515,Five Lamps,,53.35439,-6.2472,,,,
8220DB000516,516,Newcomen Bridge,,53.35621,-6.244942,,,,
8220DB000518,518,Nottingham Street,,53.3589041624283,-6.2409909439451,,,,
8220DB000519,519,North Strand Fire Station,,53.360339,-6.239535,,,,
8220DB000522,522,Fairview,,53.363207,-6.2356,,,,
8220DB000523,523,Marino Mart,,53.364355,-6.231308,,,,
8220DB000525,525,Howth Road,,53.3649608735109,-6.22633091116316,,,,
8220DB000526,526,Copeland Grove,,53.3668695721479,-6.22111227858031,,,,
8220DB000527,527,Ashbrook,,53.3680198762275,-6.21267888054445,,,,
8220DB000528,528,Castle Grove,,53.369264080697,-6.20993674463178,,,,
8220DB000529,529,Collins Avenue,,53.3705774149451,-6.20761234516729,,,,
8220DB000530,530,Killester Village,,53.371224,-6.204023,,,,
8220DB000531,531,The Demesne,,53.3732509125103,-6.20130788472614,,,,
8220DB000532,532,The Meadows,,53.375802080403,-6.19347468575652,,,,
8220DB000533,533,Ennafort Park,,53.3775832778026,-6.18705613952442,,,,
8220DB000534,534,Cill Eanna,,53.37875,-6.18164,,,,
8220DB000535,535,Raheny,,53.380257073034,-6.17730695711373,,,,
8220DB000536,536,Raheny Library,,53.3804237567076,-6.17351172677606,,,,
8220DB000537,537,Avondale Park,,53.3799012003047,-6.16815263497725,,,,
8220DB000538,538,Maywood,,53.3801380645862,-6.16426418318854,,,,
8220DB000539,539,Foxfield,,53.3806736618095,-6.15935564153758,,,,
8220DB000540,540,Lonsdale,,53.3813362763679,-6.1551179435333,,,,
8220DB000541,541,James Larkin Road,,53.3818727077496,-6.15202806844666,,,,
8220DB000542,542,Strand View,,53.3836619200447,-6.14626794992908,,,,
8220DB000591,591,Kilbarrack Road,,53.384168,-6.144683,,,,
8220DB000592,592,James Larkin Road,,53.382733,-6.148383,,,,
8220DB000593,593,Howth Road,,53.381849,-6.151638,,,,
8220DB000594,594,Lonsdale,,53.381163,-6.155561,,,,
8220DB000595,595,Foxfield,,53.3806,-6.159239,,,,
8220DB000596,596,Shieling Square,,53.380253,-6.161794,,,,
8220DB000597,597,Maywood,,53.379898,-6.165612,,,,
8220DB000598,598,Avondale Park,,53.379847,-6.169282,,,,
8220DB000599,599,Raheny Library,,53.3803,-6.173081,,,,
8220DB000600,600,Raheny,,53.380248,-6.17612,,,,
8220DB000601,601,Cill Eanna,,53.3792234833174,-6.17966599663793,,,,
8220DB000602,602,Wade's Avenue,,53.378143,-6.183049,,,,
8220DB000603,603,Ennafort Park,,53.377382,-6.187425,,,,
8220DB000604,604,All Saints Road,,53.376355,-6.190791,,,,
8220DB000605,605,The Meadows,,53.375667,-6.193435,,,,
8220DB000606,606,St Brigid's Church,,53.374709,-6.197865,,,,
8220DB000607,607,The Demesne,,53.372516,-6.20203,,,,
8220DB000608,608,Killester Village,,53.371078,-6.204465,,,,
8220DB000609,609,Castle Grove,,53.3698375440776,-6.20862025648968,,,,
8220DB000610,610,Ashbrook,,53.368362,-6.211538,,,,
8220DB000611,611,Hollybrook Park,,53.366754679119,-6.21883292211135,,,,
8220DB000612,612,Copeland Avenue,,53.3657562265179,-6.2242091299833,,,,
8220DB000613,613,Marino Crescent Park,,53.364618,-6.226811,,,,
8220DB000614,614,Fairview,,53.363284,-6.234544,,,,
8220DB000616,616,North Strand Fire Station,,53.359845,-6.239555,,,,
8220DB000617,617,North Strand Road,,53.357895,-6.242009,,,,
8220DB000618,618,Newcomen Bridge,,53.355807,-6.245148,,,,
8220DB000619,619,Five Lamps,,53.354198,-6.247095,,,,
8220DB000620,620,Talbot Street East,,53.350961,-6.25278,,,,
8220DB000621,621,Talbot Street West,,53.350518,-6.256268,,,,
8220DB000624,624,Harmonstown Road,,53.380185,-6.189125,,,,
8220DB000625,625,Lein Park,,53.381788,-6.186321,,,,
8220DB000626,626,Edenmore Green,,53.384495,-6.184056,,,,
8220DB000627,627,Edenmore Grove South,,53.385407,-6.182003,,,,
8220DB000628,628,Edenmore Grove North,,53.386955,-6.183907,,,,
8220DB000629,629,Edenmore Park,,53.386528,-6.185969,,,,
8220DB000630,630,Springdale Road,,53.387244,-6.189322,,,,
8220DB000633,633,Tonlegee Drive,,53.389644,-6.189355,,,,
8220DB000634,634,Tonlegee Avenue,,53.390275,-6.184141,,,,
8220DB000635,635,Edenmore Shopping Centre,,53.389023,-6.183924,,,,
8220DB000636,636,Glenwood Road,,53.388859,-6.186742,,,,
8220DB000637,637,Glenfarne Road,,53.387792,-6.189885,,,,
8220DB000638,638,Springdale Road,,53.386762,-6.18838,,,,
8220DB000639,639,Edenmore Park,,53.386333,-6.186744,,,,
8220DB000640,640,Edenmore Grove North,,53.386705,-6.183451,,,,
8220DB000641,641,Edenmore Grove South,,53.385826,-6.182391,,,,
8220DB000642,642,Edenmore Green,,53.384732,-6.183114,,,,
8220DB000643,643,Saint Joseph's Hospital,,53.383566,-6.183885,,,,
8220DB000644,644,Lein Park,,53.382362,-6.185711,,,,
8220DB000645,645,Harmonstown Road,,53.380169,-6.18863,,,,
8220DB000649,649,All Saints Road,,53.3762836659106,-6.18966656708744,,,,
8220DB000650,650,Sybil Hill Avenue,,53.3754028537338,-6.18552548323385,,,,
8220DB000651,651,All Saints Park,,53.3754794507715,-6.1799309090613,,,,
8220DB000653,653,Raheny,,53.3794630466244,-6.17534163896221,,,,
8220DB000654,654,Watermill Road,,53.37921,-6.177021,,,,
8220DB000655,655,Watermill Drive,,53.3777386713847,-6.17543040232881,,,,
8220DB000656,656,St Anne's Avenue,,53.3764702007961,-6.17770919175966,,,,
8220DB000657,657,All Saints Park,,53.3755453978778,-6.17895111704479,,,,
8220DB000658,658,Waterfall Road,,53.37498,-6.183139,,,,
8220DB000659,659,Sybil Hill Avenue,,53.375237,-6.185878,,,,
8220DB000662,662,Clanmoyle Road,,53.37387,-6.212629,,,,
8220DB000664,664,Donnycarney,,53.374719,-6.219508,,,,
8220DB000665,665,Donnycarney Road,,53.37251,-6.22202,,,,
8220DB000666,666,Mount Temple School,,53.370233,-6.224263,,,,
8220DB000667,667,Copeland Avenue,,53.367982,-6.226987,,,,
8220DB000668,668,Marino Mart,,53.364633,-6.229263,,,,
8220DB000669,669,Crescent Place,,53.366317,-6.228679,,,,
8220DB000670,670,Copeland Avenue,,53.368956,-6.22603,,,,
8220DB000671,671,Mount Temple School,,53.370717,-6.224153,,,,
8220DB000672,672,Donnycarney Road,,53.37354,-6.22109,,,,
8220DB000674,674,Parnell Park,,53.3746860705057,-6.21608209235965,,,,
8220DB000709,709,St Brigid's Church,,53.375038,-6.197039,,,,
8220DB000722,722,Raheny Station,,53.381114,-6.175722,,,,
8220DB000723,723,Raheny Road,,53.384152,-6.175727,,,,
8220DB000724,724,Grange Park Road,,53.386955,-6.17451,,,,
8220DB000725,725,Ardscoil La Salle,,53.389572,-6.170489,,,,
8220DB000726,726,Grange Road,,53.391748,-6.167614,,,,
8220DB000727,727,Ardara Avenue,,53.393705,-6.166838,,,,
8220DB000728,728,Holy Trinity Church,,53.395316,-6.163491,,,,
8220DB000729,729,Holy Trinity NS,,53.396558,-6.162445,,,,
8220DB000730,730,Grangemore Road,,53.398167,-6.161819,,,,
8220DB000738,738,Grange Road,,53.3976003550304,-6.16181320548643,,,,
8220DB000739,739,Holy Trinity Church,,53.3951450858597,-6.16346788917263,,,,
8220DB000740,740,Ardara Avenue,,53.3931412776214,-6.16701261526443,,,,
8220DB000741,741,St Donagh's Road,,53.3919077252208,-6.16745657119052,,,,
8220DB000742,742,Raheny Road,,53.3898234138452,-6.16986158795113,,,,
8220DB000743,743,Woodbine Park,,53.3880248638023,-6.17273523820562,,,,
8220DB000744,744,Belmont Park,,53.3850921988006,-6.17492048437068,,,,
8220DB000745,745,Raheny Station,,53.381343565605,-6.17547167673029,,,,
8220DB000747,747,Kildare Street,,53.339931,-6.255724,,,,
8220DB000748,748,Merrion Row,,53.33851,-6.255031,,,,
8220DB000749,749,Baggot Street Lower,,53.337621,-6.250802,,,,
8220DB000750,750,Fitzwilliam Street,,53.336571,-6.248488,,,,
8220DB000751,751,Herbert Street,,53.335321,-6.246572,,,,
8220DB000752,752,Baggot Street Upper,,53.333745,-6.244496,,,,
8220DB000753,753,Waterloo Road,,53.332453,-6.243521,,,,
8220DB000754,754,Burlington Road,,53.330784,-6.24428,,,,
8220DB000755,755,Wellington Lane,,53.328828,-6.245141,,,,
8220DB000756,756,Royal Hospital,,53.3263997617783,-6.2425987467031,,,,
8220DB000757,757,Donnybrook Village,,53.324081,-6.239586,,,,
8220DB000758,758,Victoria Avenue,,53.3226869429527,-6.23767738043155,,,,
8220DB000759,759,Donnybrook Stadium,,53.320349,-6.233346,,,,
8220DB000760,760,Donnybrook Depot,,53.31833,-6.230562,,,,
8220DB000761,761,Teresian School,,53.3161,-6.227487,,,,
8220DB000762,762,RTÉ Studios,,53.314517,-6.224371,,,,
8220DB000763,763,Belfield Court,,53.3123201447816,-6.22110031908025,,,,
8220DB000769,769,Belfield Court,,53.311901,-6.221328,,,,
8220DB000770,770,RTÉ Studios,,53.314636,-6.225732,,,,
8220DB000771,771,Teresian School,,53.31588,-6.227781,,,,
8220DB000772,772,Donnybrook Depot,,53.318485,-6.231321,,,,
8220DB000773,773,Donnybrook Stadium,,53.319916,-6.233273,,,,
8220DB000774,774,Donnybrook,,53.321612,-6.2355,,,,
8220DB000775,775,Donnybrook Village,,53.3234897098036,-6.23908544721613,,,,
8220DB000776,776,Morehampton Terrace,,53.325479,-6.241736,,,,
8220DB000777,777,Royal Hospital,,53.32695,-6.24369,,,,
8220DB000779,779,Waterloo Road,,53.328689,-6.245447,,,,
8220DB000780,780,Burlington Road,,53.331063,-6.244344,,,,
8220DB000781,781,Baggot Street,,53.332626,-6.243664,,,,
8220DB000782,782,Baggot Street Upper,,53.333584,-6.244601,,,,
8220DB000783,783,Baggot Street Lower,,53.335308,-6.246978,,,,
8220DB000784,784,Fitzwilliam Street,,53.336457,-6.248657,,,,
8220DB000785,785,Pembroke Street Lower,,53.337106,-6.251859,,,,
8220DB000786,786,Leeson Street Lower,,53.33513,-6.25612,,,,
8220DB000790,790,Stephen's Green Nth,,53.339316,-6.258367,,,,
8220DB000791,791,Saint Stephen's Green North,,53.33888,-6.256983,,,,
8220DB000792,792,Dawson Street,,53.3404489881504,-6.25858580845119,,,,
8220DB000793,793,Dawson Street,,53.3408597860288,-6.25840386924731,,,,
8220DB000795,795,Berkeley Road,,53.35874,-6.269724,,,,
8220DB000796,796,Berkeley Road,,53.360018,-6.269853,,,,
8220DB000797,797,Phibsborough PO,,53.360726,-6.274662,,,,
8220DB000798,798,Rathdown Road,,53.359477,-6.279641,,,,
8220DB000799,799,Charleville Road,,53.358869,-6.281739,,,,
8220DB000800,800,Annamore Parade,,53.358065,-6.28461,,,,
8220DB000801,801,Annamore Road,,53.35747,-6.287639,,,,
8220DB000802,802,Drumalee,,53.3564983224928,-6.29129872279033,,,,
8220DB000803,803,Oxmantown Road,,53.354713,-6.294044,,,,
8220DB000804,804,O'Devaney Gardens,,53.353685,-6.295693,,,,
8220DB000807,807,Phoenix Park,,53.351557,-6.2977,,,,
8220DB000808,808,North Circular Road,,53.353995,-6.29535,,,,
8220DB000809,809,Marlborough Road,,53.355261,-6.293376,,,,
8220DB000810,810,Ellesmere Avenue,,53.3571,-6.289998,,,,
8220DB000811,811,Annamore Road,,53.357567,-6.287485,,,,
8220DB000812,812,Annamore Parade,,53.358266,-6.284227,,,,
8220DB000813,813,Charleville Road,,53.35919,-6.280959,,,,
8220DB000814,814,St Peter's Church,,53.36054,-6.276097,,,,
8220DB000817,817,Mater Hospital,,53.359646,-6.269612,,,,
8220DB000818,818,O'Connell Avenue,,53.358481,-6.269224,,,,
8220DB000819,819,Blessington Street,,53.356304,-6.265992,,,,
8220DB000820,820,Carnlough Road South,,53.361968,-6.293514,,,,
8220DB000821,821,Drumcliffe Road,,53.364552,-6.293831,,,,
8220DB000822,822,Mulroy Road,,53.367121,-6.29182,,,,
8220DB000823,823,Kilkieran Road,,53.368235,-6.29119,,,,
8220DB000824,824,Bannow Road,,53.369748,-6.293263,,,,
8220DB000825,825,St Finbar's Road,,53.37044,-6.29688,,,,
8220DB000826,826,Carnlough Road,,53.371218,-6.30117,,,,
8220DB000827,827,Ventry Park,,53.371294,-6.303992,,,,
8220DB000828,828,Broombridge Station,,53.37108,-6.29974,,,,
8220DB000829,829,St Finbar's Road,,53.370397,-6.295912,,,,
8220DB000830,830,Bannow Road,,53.369624,-6.292171,,,,
8220DB000831,831,Mulroy Road,,53.367662,-6.291333,,,,
8220DB000832,832,Drumcliffe Road,,53.36363,-6.294064,,,,
8220DB000833,833,Carnlough Road South,,53.361776,-6.293311,,,,
8220DB000834,834,Saint Patrick's Road,,53.361975,-6.260428,,,,
8220DB000835,835,Saint Brigid's Road Lower,,53.362628,-6.263271,,,,
8220DB000836,836,Claude Road for Vision Ireland,,53.363292,-6.266249,,,,
8220DB000837,837,David Road,,53.363778,-6.268213,,,,
8220DB000838,838,Charleville Lawn,,53.364319,-6.270189,,,,
8220DB000839,839,David Road,,53.3637449204179,-6.26776341254,,,,
8220DB000840,840,Claude Road for Vision Ireland,,53.363243,-6.26541,,,,
8220DB000841,841,Saint Patrick's Road,,53.362122,-6.260632,,,,
8220DB000842,842,Stephen's Green East,,53.337252,-6.256313,,,,
8220DB000843,843,Saint Stephen's Green East,,53.337002,-6.256459,,,,
8220DB000844,844,Saint Stephen's Green East,,53.337632,-6.255862,,,,
8220DB000845,845,Leeson Street Lower,,53.335453,-6.256252,,,,
8220DB000846,846,Adelaide Road,,53.333454,-6.254111,,,,
8220DB000847,847,Leeson Street Upper,,53.3316014451627,-6.25221961965177,,,,
8220DB000848,848,Sussex Road,,53.3297279908157,-6.24888799835488,,,,
8220DB000849,849,Appian Way,,53.327898,-6.247927,,,,
8220DB000850,850,Chelmsford Road,,53.326086,-6.251199,,,,
8220DB000851,851,Ranelagh,,53.3251,-6.253221,,,,
8220DB000852,852,Ranelagh,,53.324429,-6.252858,,,,
8220DB000853,853,Sandford Road,,53.322593,-6.24837,,,,
8220DB000854,854,Larch Grove,,53.321632,-6.246578,,,,
8220DB000855,855,Sandford Road,,53.319302,-6.242815,,,,
8220DB000856,856,Clonskeagh Road,,53.317655,-6.240827,,,,
8220DB000857,857,Clonskeagh Hospital,,53.316567,-6.23838,,,,
8220DB000858,858,Clonskeagh,,53.314095,-6.238302,,,,
8220DB000881,881,Clonskeagh,,53.314564,-6.238417,,,,
8220DB000882,882,Clonskeagh Hospital,,53.316705,-6.239155,,,,
8220DB000883,883,Eglinton Road,,53.317685,-6.241036,,,,
8220DB000884,884,Norwood Park,,53.319997,-6.244213,,,,
8220DB000885,885,Hollybank Avenue Lower,,53.321259,-6.246293,,,,
8220DB000886,886,Merton Drive,,53.32262,-6.24863,,,,
8220DB000887,887,Ranelagh,,53.324208,-6.252462,,,,
8220DB000893,893,Cowper Road,,53.316072,-6.259158,,,,
8220DB000894,894,Cowper Road West,,53.315193,-6.264192,,,,
8220DB000895,895,Palmerston Villas,,53.313932,-6.264018,,,,
8220DB000896,896,Palmerston Park,,53.3133721496302,-6.26135424684808,,,,
8220DB000897,897,Palmerston Road,,53.3143,-6.25839,,,,
8220DB000903,903,Chelmsford Road,,53.325583,-6.252496,,,,
8220DB000904,904,Appian Way,,53.327417,-6.248848,,,,
8220DB000906,906,Leeson Street Upper,,53.3288107659722,-6.24763437727541,,,,
8220DB000907,907,Dartmouth Road,,53.3297193588566,-6.25075010860467,,,,
8220DB000908,908,Grand Parade,,53.3311542855348,-6.25237303421842,,,,
8220DB000909,909,Adelaide Road,,53.333148,-6.254078,,,,
8220DB000958,958,St. Donagh's,,53.390917,-6.163785,,,,
8220DB000959,959,Grange Road,,53.391019,-6.166908,,,,
8220DB000960,960,Tonlegee Road,,53.391158,-6.171879,,,,
8220DB000961,961,Millwood Villas,,53.391057,-6.176455,,,,
8220DB000962,962,Limewood Park,,53.390795,-6.182856,,,,
8220DB000969,969,Northside Shopping Centre,,53.395682,-6.21549,,,,
8220DB000972,972,Aulden Grange,,53.3969960428841,-6.23492379932213,,,,
8220DB000979,979,St Canice's GNS,,53.389954,-6.297101,,,,
8220DB000980,980,Mellowes Crescent,,53.389805,-6.303031,,,,
8220DB000981,981,Cardiff Castle Road,,53.389781,-6.307061,,,,
8220DB000983,983,Mellowes Road,,53.390142,-6.310956,,,,
8220DB000984,984,Cardiff Castle Road,,53.389911,-6.306755,,,,
8220DB000985,985,Mellowes Crescent,,53.389925,-6.303898,,,,
8220DB000987,987,Finglas Village,,53.39022,-6.299375,,,,
8220DB000988,988,St Canice's GNS,,53.3898902365416,-6.29579510810412,,,,
8220DB000993,993,Larch Hill,,53.397703,-6.229225,,,,
8220DB001005,1005,Limewood Park,,53.390951,-6.181917,,,,
8220DB001013,1013,Earlsfort Terrace,,53.334181,-6.258346,,,,
8220DB001015,1015,Harcourt Street,,53.33273,-6.259966,,,,
8220DB001016,1016,Richmond Street South,,53.33084,-6.26433,,,,
8220DB001017,1017,Grove Park,,53.329369,-6.264322,,,,
8220DB001018,1018,Cathal Brugha Barracks,,53.327585,-6.26465,,,,
8220DB001019,1019,Military Road,,53.32643,-6.26483,,,,
8220DB001020,1020,Rathmines,,53.32508,-6.26508,,,,
8220DB001021,1021,Rathmines Road Upper,,53.32138,-6.265652,,,,
8220DB001022,1022,Summerville Park,,53.3195217438255,-6.26455667416163,,,,
8220DB001023,1023,Rathmines Close,,53.3170461890185,-6.26491228899521,,,,
8220DB001024,1024,Frankfort Avenue,,53.3158523430749,-6.26502075611147,,,,
8220DB001025,1025,Trinity Hall,,53.3116,-6.262477,,,,
8220DB001026,1026,Dartry Road,,53.309106,-6.260327,,,,
8220DB001027,1027,South Hill,,53.308738,-6.257911,,,,
8220DB001028,1028,Chuchtown Road Lower,,53.308499,-6.255715,,,,
8220DB001062,1062,Chuchtown Road Lower,,53.30826,-6.255319,,,,
8220DB001063,1063,South Hill,,53.308572,-6.258863,,,,
8220DB001064,1064,Dartry Road,,53.309429,-6.260929,,,,
8220DB001065,1065,Trinity Hall,,53.311829,-6.262783,,,,
8220DB001066,1066,Palmerston Villas,,53.313753,-6.264085,,,,
8220DB001067,1067,Rathmines Close,,53.317051,-6.265227,,,,
8220DB001068,1068,Rathmines Road Upper,,53.320558,-6.265385,,,,
8220DB001069,1069,Swan Shopping Centre,,53.323285,-6.26562,,,,
8220DB001070,1070,Rathmines,,53.32498,-6.265356,,,,
8220DB001071,1071,Cathal Brugha Barracks,,53.32729,-6.26485,,,,
8220DB001072,1072,Richmond Street South,,53.331027,-6.264585,,,,
8220DB001074,1074,Harcourt Street,,53.334001,-6.261742,,,,
8220DB001076,1076,Swan Shopping Centre,,53.323131,-6.265491,,,,
8220DB001077,1077,Rathmines Garda Station,,53.321573,-6.266545,,,,
8220DB001078,1078,Rathmines Park,,53.319413,-6.268809,,,,
8220DB001079,1079,Leicester Avenue,,53.316655,-6.270752,,,,
8220DB001080,1080,Garville Avenue,,53.314909,-6.271873,,,,
8220DB001081,1081,Rathgar East,,53.31265,-6.273495,,,,
8220DB001082,1082,Rathgar West,,53.311676,-6.275771,,,,
8220DB001083,1083,Brighton Road,,53.311146,-6.278253,,,,
8220DB001085,1085,Terenure Road East,,53.3101,-6.282377,,,,
8220DB001086,1086,Terenure Road West,,53.30967,-6.285606,,,,
8220DB001087,1087,Greenlea Road,,53.310335,-6.289391,,,,
8220DB001088,1088,Parkmore Drive,,53.310974,-6.293178,,,,
8220DB001089,1089,Lavarna Grove,,53.311656,-6.297503,,,,
8220DB001090,1090,Kimmage Road West,,53.312104,-6.300576,,,,
8220DB001091,1091,Whitehall Road East,,53.31237,-6.30534,,,,
8220DB001117,1117,Terenure Road West,,53.311891,-6.298229,,,,
8220DB001118,1118,Hazelbrook Road,,53.311367,-6.294918,,,,
8220DB001119,1119,Parkmore Drive,,53.310936,-6.292414,,,,
8220DB001120,1120,Terenure Garda Station,,53.310198,-6.287986,,,,
8220DB001121,1121,Terenure Library,,53.309002,-6.285408,,,,
8220DB001122,1122,Rathdown Park,,53.30722,-6.288375,,,,
8220DB001123,1123,Lakelands Park,,53.305577,-6.291037,,,,
8220DB001124,1124,Terenure College,,53.304173,-6.293404,,,,
8220DB001159,1159,Bushy Park House,,53.30249,-6.2963,,,,
8220DB001160,1160,Terenure College,,53.304394,-6.293125,,,,
8220DB001161,1161,Lakelands Park,,53.306063,-6.290462,,,,
8220DB001162,1162,Rathdown Park,,53.307732,-6.28777,,,,
8220DB001163,1163,Terenure Library,,53.308873,-6.285863,,,,
8220DB001164,1164,Terenure Road East,,53.310412,-6.281584,,,,
8220DB001165,1165,Rathgar West,,53.311712,-6.276429,,,,
8220DB001166,1166,Rathgar East,,53.31389,-6.272905,,,,
8220DB001167,1167,Garville Avenue,,53.315945,-6.271396,,,,
8220DB001168,1168,Leicester Avenue,,53.317929,-6.27001,,,,
8220DB001169,1169,Rathmines Park,,53.320056,-6.268558,,,,
8220DB001170,1170,Rathmines Garda Station,,53.321689,-6.266525,,,,
8220DB001171,1171,Gardiner Street Lower,,53.350318,-6.254263,,,,
8220DB001172,1172,Deverell Place,,53.351743,-6.255256,,,,
8220DB001173,1173,Parnell Street East,,53.353706,-6.256678,,,,
8220DB001174,1174,Mountjoy Square West,,53.3561865814529,-6.25854512541131,,,,
8220DB001175,1175,Gardiner Street Upper,,53.358413194465,-6.26084318209768,,,,
8220DB001176,1176,Coolock Lane Park,,53.399355,-6.221878,,,,
8220DB001177,1177,Clonshaugh Industrial Estate West,,53.400897,-6.225257,,,,
8220DB001178,1178,Clonshaugh Industrial Estate North,,53.4034534096905,-6.21884924282634,,,,
8220DB001179,1179,Clonshaugh Industrial Estate East,,53.399931,-6.218921,,,,
8220DB001184,1184,Talbot Street East,,53.35086,-6.25385,,,,
8220DB001185,1185,Oak Road,,53.3763670141117,-6.22151304646931,,,,
8220DB001186,1186,Belton Park Road,,53.377643,-6.22633,,,,
8220DB001187,1187,Celtic Park Road,,53.378608,-6.231355,,,,
8220DB001188,1188,Collinswood,,53.380018,-6.235596,,,,
8220DB001190,1190,Collinswood,,53.380156,-6.235786,,,,
8220DB001191,1191,Collins Court,,53.379217,-6.233074,,,,
8220DB001192,1192,Celtic Park Road,,53.378633,-6.230663,,,,
8220DB001193,1193,The Yard,,53.3779921991309,-6.22744276884898,,,,
8220DB001194,1194,Belton Park Road,,53.37748,-6.22521,,,,
8220DB001195,1195,Oak Road,,53.37639,-6.221241,,,,
8220DB001196,1196,Elm Mount Road,,53.377787,-6.214915,,,,
8220DB001197,1197,Artane Cottages,,53.379232,-6.211758,,,,
8220DB001198,1198,Artane Roundabout,,53.382512,-6.206916,,,,
8220DB001199,1199,Mask Avenue,,53.384985,-6.202768,,,,
8220DB001200,1200,Coolock Village,,53.386963,-6.20103,,,,
8220DB001201,1201,Dunree Park,,53.39079,-6.196148,,,,
8220DB001202,1202,Newtown Cottages,,53.392501,-6.193429,,,,
8220DB001203,1203,Darndale Roundabout,,53.396726,-6.187536,,,,
8220DB001205,1205,Clarehall Shopping Centre,,53.401503,-6.181858,,,,
8220DB001218,1218,Belcamp Lane,,53.399706,-6.184281,,,,
8220DB001219,1219,Danieli Road,,53.381302,-6.208334,,,,
8220DB001220,1220,Artane Cottages,,53.378763,-6.212199,,,,
8220DB001221,1221,Elm Mount Road,,53.376816,-6.216098,,,,
8220DB001222,1222,Ardlea Road,,53.384066,-6.20685,,,,
8220DB001223,1223,Chanel Avenue,,53.385251,-6.208514,,,,
8220DB001224,1224,Maryfield Avenue,,53.386644,-6.210936,,,,
8220DB001225,1225,Maryfield Drive,,53.386859,-6.213904,,,,
8220DB001226,1226,Ardmore Drive,,53.388582,-6.21493,,,,
8220DB001227,1227,Kilmore Avenue,,53.39114,-6.21516,,,,
8220DB001228,1228,Cromcastle Avenue,,53.392429,-6.218513,,,,
8220DB001229,1229,Castletimon Green,,53.394312,-6.225426,,,,
8220DB001231,1231,Castletimon Road,,53.395489,-6.227843,,,,
8220DB001232,1232,Castletimon Park,,53.395286,-6.230483,,,,
8220DB001233,1233,Castletimon Drive,,53.394362,-6.231243,,,,
8220DB001234,1234,Ballyshannon Avenue,,53.394688,-6.232613,,,,
8220DB001235,1235,Castletimon Green,,53.394737,-6.225604,,,,
8220DB001237,1237,Cromcastle Avenue,,53.392679,-6.218984,,,,
8220DB001238,1238,Kilmore Avenue,,53.391566,-6.21491,,,,
8220DB001239,1239,Ardmore Drive,,53.389004,-6.214882,,,,
8220DB001240,1240,Maryfield Avenue,,53.386818,-6.21117,,,,
8220DB001241,1241,Chanel Avenue,,53.385879,-6.209089,,,,
8220DB001242,1242,Ardlea Road,,53.384492,-6.207073,,,,
8220DB001243,1243,Greencastle Avenue,,53.3949,-6.199914,,,,
8220DB001244,1244,Cromcastle Green,,53.392907,-6.220447,,,,
8220DB001245,1245,Glin Avenue,,53.397997,-6.206219,,,,
8220DB001246,1246,Kilbarron Park,,53.393493,-6.222979,,,,
8220DB001247,1247,Greencastle Avenue,,53.395081,-6.199981,,,,
8220DB001248,1248,Greencastle Parade,,53.392989,-6.197167,,,,
8220DB001249,1249,Adare Road,,53.395181,-6.20124,,,,
8220DB001250,1250,Bunratty Road,,53.393739,-6.207556,,,,
8220DB001251,1251,Kilbarron Park,,53.393457,-6.222379,,,,
8220DB001253,1253,Tranquility Grove,,53.393864,-6.214694,,,,
8220DB001254,1254,Adare Avenue,,53.395117,-6.211363,,,,
8220DB001255,1255,Adare Park,,53.394354,-6.208974,,,,
8220DB001256,1256,Bunratty Road,,53.393631,-6.206944,,,,
8220DB001258,1258,Marigold Avenue,,53.398187,-6.190827,,,,
8220DB001259,1259,Marigold Road,,53.39859,-6.194885,,,,
8220DB001260,1260,Belcamp Avenue,,53.400178,-6.198819,,,,
8220DB001262,1262,Clonshaugh Drive,,53.402004,-6.204908,,,,
8220DB001265,1265,Marigold Avenue,,53.398221,-6.190705,,,,
8220DB001266,1266,Clonshaugh Drive,,53.402055,-6.204725,,,,
8220DB001267,1267,Ferrycarrig Park,,53.400855,-6.200249,,,,
8220DB001268,1268,Belcamp Avenue,,53.399894,-6.197898,,,,
8220DB001269,1269,Marigold Road,,53.3984289595154,-6.19371931703884,,,,
8220DB001270,1270,Darndale Roundabout,,53.396497,-6.18723,,,,
8220DB001272,1272,Newtown Cottages,,53.392882,-6.191879,,,,
8220DB001273,1273,Dunree Park,,53.391109,-6.195277,,,,
8220DB001274,1274,Coolock Junction,,53.388939,-6.19797,,,,
8220DB001275,1275,Coolock Village,,53.385586,-6.202111,,,,
8220DB001276,1276,Mask Avenue,,53.384331,-6.202915,,,,
8220DB001277,1277,Artane Roundabout,,53.382681,-6.206217,,,,
8220DB001278,1278,College Green,,53.344237,-6.2613,,,,
8220DB001279,1279,College Green,,53.34426,-6.261705,,,,
8220DB001280,1280,McKelvey Avenue,,53.400196,-6.303143,,,,
8220DB001282,1282,South Great George's Street,,53.342342,-6.264501,,,,
8220DB001283,1283,South Great George's Street,,53.341809,-6.264928,,,,
8220DB001284,1284,Redmond's Hill,,53.3381283509666,-6.26587355723325,,,,
8220DB001285,1285,Camden Street Lower,,53.334378,-6.265125,,,,
8220DB001286,1286,Harrington Street,,53.3325,-6.265727,,,,
8220DB001287,1287,Harrington Street,,53.332478,-6.266118,,,,
8220DB001288,1288,Victoria Street,,53.332323,-6.269638,,,,
8220DB001289,1289,Spencer Street South,,53.332129,-6.273039,,,,
8220DB001290,1290,Clanbrassil Upper,,53.330731,-6.275167,,,,
8220DB001291,1291,Mount Drummond Avenue,,53.328447,-6.27631,,,,
8220DB001292,1292,Harold's Cross Park,,53.325634,-6.278124,,,,
8220DB001293,1293,Harold's Cross Village,,53.32286,-6.279103,,,,
8220DB001294,1294,Tivoli Avenue,,53.3206,-6.278803,,,,
8220DB001295,1295,Kenilworth Park,,53.31791,-6.27951,,,,
8220DB001296,1296,Mount Tallant Avenue,,53.315563,-6.281648,,,,
8220DB001297,1297,Whitton Road,,53.31241,-6.28239,,,,
8220DB001298,1298,Terenure North,,53.310747,-6.283027,,,,
8220DB001299,1299,Terenure South,,53.308396,-6.283901,,,,
8220DB001300,1300,Westbourne Road,,53.306151,-6.283421,,,,
8220DB001335,1335,Bushy Park Road,,53.307417,-6.284001,,,,
8220DB001336,1336,Terenure South,,53.308901,-6.284031,,,,
8220DB001337,1337,Terenure North,,53.311179,-6.283069,,,,
8220DB001338,1338,Whitton Road,,53.31243,-6.282584,,,,
8220DB001339,1339,Brighton Square,,53.315024,-6.2823,,,,
8220DB001340,1340,Mount Tallant Avenue,,53.31647,-6.280996,,,,
8220DB001341,1341,Kenilworth Park,,53.319228,-6.278994,,,,
8220DB001342,1342,Tivoli Avenue,,53.32129,-6.27934,,,,
8220DB001343,1343,Harold's Cross Village,,53.322667,-6.279426,,,,
8220DB001344,1344,Saint Claire's School,,53.327171,-6.277608,,,,
8220DB001345,1345,Mount Drummond Avenue,,53.328796,-6.276236,,,,
8220DB001347,1347,Clanbrassil Upper,,53.331183,-6.275344,,,,
8220DB001348,1348,Leonard's Corner,,53.33225,-6.27389,,,,
8220DB001349,1349,Victoria Street,,53.332386,-6.270881,,,,
8220DB001350,1350,Harrington Street,,53.3325610927811,-6.26748081181986,,,,
8220DB001352,1352,Camden Street Lower,,53.334445,-6.265407,,,,
8220DB001353,1353,Wexford Street,,53.33601,-6.265419,,,,
8220DB001354,1354,Redmond's Hill,,53.339048,-6.266076,,,,
8220DB001355,1355,Aungier Street,,53.340096,-6.265839,,,,
8220DB001357,1357,South Great George's Street,,53.342568,-6.264597,,,,
8220DB001358,1358,College Green,,53.344305,-6.262889,,,,
8220DB001359,1359,College Green,,53.344399,-6.261369,,,,
8220DB001360,1360,Leonard's Corner,,53.331983,-6.276618,,,,
8220DB001362,1362,National Stadium,,53.331204,-6.279908,,,,
8220DB001363,1363,Saint Anne's Road South,,53.331846,-6.285167,,,,
8220DB001364,1364,Dolphin Avenue,,53.332346,-6.28806,,,,
8220DB001365,1365,Dolphin's Barn,,53.332901,-6.290455,,,,
8220DB001366,1366,Saint Andrews Centre,,53.33515,-6.294315,,,,
8220DB001367,1367,Rialto Church,,53.335685,-6.296561,,,,
8220DB001369,1369,Mayfield Road,,53.338867,-6.302245,,,,
8220DB001370,1370,Hybreasal House,,53.339124,-6.305317,,,,
8220DB001371,1371,Suir Road North,,53.338832,-6.30787,,,,
8220DB001372,1372,Goldenbridge Avenue,,53.338104,-6.309874,,,,
8220DB001373,1373,Stephens Road,,53.337775,-6.312035,,,,
8220DB001374,1374,Southern Cross Avenue,,53.339218,-6.313014,,,,
8220DB001375,1375,Bulfin Road,,53.339556,-6.31216,,,,
8220DB001376,1376,Bulfin Gardens,,53.339508,-6.308753,,,,
8220DB001377,1377,Hybreasal House,,53.339163,-6.304742,,,,
8220DB001378,1378,Mayfield Road,,53.338828,-6.301376,,,,
8220DB001379,1379,Rialto Luas,,53.3373397013518,-6.2991226532094,,,,
8220DB001380,1380,Rialto Church,,53.335641,-6.295977,,,,
8220DB001381,1381,Saint Andrews Centre,,53.335124,-6.293745,,,,
8220DB001382,1382,Dolphin's Barn,,53.333173,-6.290595,,,,
8220DB001383,1383,Dolphin Avenue,,53.332271,-6.286607,,,,
8220DB001384,1384,National Stadium,,53.331356,-6.282364,,,,
8220DB001385,1385,Griffith College,,53.3318,-6.278262,,,,
8220DB001386,1386,Parnell Road,,53.329553,-6.284448,,,,
8220DB001387,1387,Aughavannagh Road,,53.32804,-6.28673,,,,
8220DB001388,1388,Clogher Road,,53.32673,-6.29118,,,,
8220DB001389,1389,Sundrive Road,,53.325936,-6.295493,,,,
8220DB001391,1391,Clonmacnoise Road,,53.322822,-6.298364,,,,
8220DB001392,1392,Bangor Circle,,53.322491,-6.30162,,,,
8220DB001394,1394,Ferns Road,,53.323743,-6.296766,,,,
8220DB001395,1395,Saint Bernadette's,,53.324734,-6.296291,,,,
8220DB001396,1396,Kildare Park,,53.32487,-6.31484,,,,
8220DB001397,1397,Kildare Park,,53.325091,-6.313857,,,,
8220DB001398,1398,Windmill Road,,53.325301,-6.310276,,,,
8220DB001399,1399,Clonard Road,,53.325143,-6.305433,,,,
8220DB001400,1400,Bangor Circle,,53.323625,-6.299818,,,,
8220DB001401,1401,Slane Road,,53.325397,-6.298652,,,,
8220DB001402,1402,Sundrive Road,,53.325988,-6.295986,,,,
8220DB001403,1403,Clogher Road,,53.327154,-6.289544,,,,
8220DB001404,1404,Aughavannagh Road,,53.328201,-6.28668,,,,
8220DB001405,1405,Parnell Road,,53.329822,-6.284408,,,,
8220DB001406,1406,Dolphin's Barn,,53.333153,-6.291691,,,,
8220DB001407,1407,Rutland Avenue,,53.331539,-6.294444,,,,
8220DB001409,1409,Crumlin Road,,53.330367,-6.297358,,,,
8220DB001410,1410,Keeper Road,,53.331417,-6.299779,,,,
8220DB001411,1411,Brickfield Drive,,53.332051,-6.303282,,,,
8220DB001412,1412,Brickfield Park,,53.332682,-6.305915,,,,
8220DB001419,1419,Brandon Road,,53.3277177272247,-6.3229112430655,,,,
8220DB001423,1423,Drimnagh Road,,53.324999,-6.319445,,,,
8220DB001424,1424,Crumlin Hospital,,53.325663,-6.316747,,,,
8220DB001425,1425,Cooley Road,,53.32706,-6.31804,,,,
8220DB001426,1426,Curlew Road,,53.329275,-6.32243,,,,
8220DB001433,1433,Brickfield Park,,53.332572,-6.305799,,,,
8220DB001434,1434,Brickfield Drive,,53.331992,-6.302323,,,,
8220DB001435,1435,Keeper Road,,53.331388,-6.299014,,,,
8220DB001436,1436,Crumlin Road,,53.330885,-6.296512,,,,
8220DB001438,1438,Oscar Square,,53.336383,-6.279414,,,,
8220DB001439,1439,Rutledge Terrace,,53.33406,-6.28265,,,,
8220DB001440,1440,Donore Avenue,,53.33199,-6.283315,,,,
8220DB001441,1441,Monasterboice Road,,53.324875,-6.303026,,,,
8220DB001442,1442,Clonard Road,,53.32513,-6.30711,,,,
8220DB001443,1443,Wood Quay,,53.345129,-6.26954,,,,
8220DB001444,1444,Merchant's Quay,,53.345076,-6.274513,,,,
8220DB001445,1445,Usher's Quay,,53.34592,-6.279466,,,,
8220DB001447,1447,Victoria Quay,,53.346503,-6.285585,,,,
8220DB001449,1449,Conyngham Road,,53.348153,-6.297896,,,,
8220DB001450,1450,Phoenix House,,53.348155,-6.301861,,,,
8220DB001451,1451,Bridge Water Quay,,53.348278,-6.305446,,,,
8220DB001452,1452,Islandbridge,,53.345421,-6.308038,,,,
8220DB001453,1453,Galtymore Drive,,53.33448,-6.3067,,,,
8220DB001456,1456,Good Counsel GAA,,53.334873,-6.308981,,,,
8220DB001457,1457,Goldenbridge,,53.33523,-6.3128,,,,
8220DB001458,1458,Davitt House,,53.334771,-6.316974,,,,
8220DB001459,1459,Galtymore Road,,53.33396,-6.31968,,,,
8220DB001460,1460,Carrow Road,,53.332356,-6.321033,,,,
8220DB001462,1462,Galtymore Close,,53.330463,-6.323824,,,,
8220DB001463,1463,Galtymore Close,,53.330624,-6.323773,,,,
8220DB001464,1464,Davitt House,,53.334899,-6.316503,,,,
8220DB001465,1465,Good Counsel GAA,,53.33484,-6.30862,,,,
8220DB001466,1466,Galtymore Drive,,53.334529,-6.306247,,,,
8220DB001469,1469,Goldenbridge,,53.335259,-6.313381,,,,
8220DB001471,1471,Islandbridge,,53.345532,-6.308289,,,,
8220DB001472,1472,Bridge Water Quay,,53.34843,-6.305966,,,,
8220DB001473,1473,Conyngham Road,,53.348306,-6.298551,,,,
8220DB001474,1474,Parkgate Street,,53.347948,-6.292362,,,,
8220DB001476,1476,Sarsfield Quay,,53.347074,-6.284676,,,,
8220DB001478,1478,Inns Quay,,53.345608,-6.272809,,,,
8220DB001479,1479,Ormond Quay Upper,,53.34599,-6.26906,,,,
8220DB001480,1480,Ormond Quay Upper,,53.345766,-6.27067,,,,
8220DB001500,1500,Connolly Station,,53.350969,-6.250134,,,,
8220DB001502,1502,Tara Street,,53.347421,-6.254096,,,,
8220DB001506,1506,Hart's Corner,,53.366778,-6.272374,,,,
8220DB001507,1507,De Courcy Square,,53.36839,-6.274503,,,,
8220DB001508,1508,Glasnevin Cemetery,,53.3699109022633,-6.2783335511568,,,,
8220DB001509,1509,Slaney Road,,53.3729258340421,-6.28422366048831,,,,
8220DB001510,1510,Ballyboggan Road East,,53.376907,-6.28731,,,,
8220DB001511,1511,Tolka Vale,,53.378234,-6.287753,,,,
8220DB001512,1512,Prospect Hill North,,53.382174,-6.291729,,,,
8220DB001514,1514,Finglas,,53.389465,-6.300022,,,,
8220DB001518,1518,Kildonan Road,,53.3906003885098,-6.31161412406028,,,,
8220DB001519,1519,Kildonan Park,,53.39244486956,-6.31175161798526,,,,
8220DB001520,1520,Barry Road,,53.39392,-6.311844,,,,
8220DB001521,1521,Plunkett Green,,53.397221,-6.310751,,,,
8220DB001523,1523,Plunkett Avenue,,53.3978788506134,-6.30958155709762,,,,
8220DB001524,1524,Barry Avenue,,53.395556,-6.310591,,,,
8220DB001525,1525,Barry Road,,53.394069,-6.311582,,,,
8220DB001526,1526,Kildonan Park,,53.3923069370311,-6.31153153662508,,,,
8220DB001528,1528,St David's Terrace,,53.356195,-6.294,,,,
8220DB001529,1529,Finglas Village,,53.388459,-6.298153,,,,
8220DB001531,1531,Clearwater Shopping Centre,,53.383744,-6.293365,,,,
8220DB001532,1532,Prospect Hill North,,53.381744,-6.290559,,,,
8220DB001533,1533,Tolka Vale,,53.378967884758,-6.2874980880021,,,,
8220DB001534,1534,Ballyboggan Road East,,53.375333,-6.285976,,,,
8220DB001535,1535,Slaney Road,,53.372306,-6.28237,,,,
8220DB001536,1536,Glasnevin Cemetery,,53.3695033971686,-6.27687723281359,,,,
8220DB001537,1537,De Courcy Square,,53.368066,-6.273208,,,,
8220DB001538,1538,Clearwater Shopping Centre,,53.384474,-6.294794,,,,
8220DB001539,1539,Griffith Drive,,53.383136,-6.279198,,,,
8220DB001540,1540,Johnstown Park,,53.38434,-6.284201,,,,
8220DB001547,1547,McKee Avenue,,53.395241,-6.301686,,,,
8220DB001548,1548,McKee Avenue North,,53.39611,-6.30275,,,,
8220DB001549,1549,Casement Road,,53.397433,-6.306637,,,,
8220DB001558,1558,McKelvey Avenue,,53.399817,-6.303053,,,,
8220DB001559,1559,Casement Road,,53.397341,-6.30652,,,,
8220DB001560,1560,Finglas North,,53.397008,-6.304548,,,,
8220DB001566,1566,Johnstown Park,,53.3844074206077,-6.28386719661231,,,,
8220DB001567,1567,Griffith Drive,,53.3840139569876,-6.28026002177018,,,,
8220DB001573,1573,Wellmount Drive,,53.384024,-6.312461,,,,
8220DB001574,1574,Cardiffsbridge Shopping Centre,,53.385594,-6.31288,,,,
8220DB001575,1575,Coláiste Íde,,53.3870661425713,-6.31274625802596,,,,
8220DB001576,1576,Cappagh Road,,53.389317,-6.313048,,,,
8220DB001577,1577,Abbottstown Road,,53.3898858080548,-6.31574701686645,,,,
8220DB001578,1578,Ratoath Drive,,53.3903851294541,-6.31801267740452,,,,
8220DB001579,1579,Heathfield Avenue,,53.3947,-6.32605,,,,
8220DB001582,1582,Heathfield Avenue,,53.39519,-6.32737,,,,
8220DB001584,1584,Abbottstown Road,,53.389885,-6.315086,,,,
8220DB001585,1585,Finglas West,,53.388768,-6.312333,,,,
8220DB001586,1586,Coláiste Íde,,53.3865250406196,-6.31261731806413,,,,
8220DB001587,1587,Wellmount Drive,,53.383466,-6.311791,,,,
8220DB001592,1592,Prospect Hill South,,53.379721,-6.289242,,,,
8220DB001593,1593,Tolka Valley Green,,53.378915,-6.29446,,,,
8220DB001595,1595,Cloonlara Road,,53.380739,-6.297619,,,,
8220DB001596,1596,Farnham Drive,,53.383041,-6.300819,,,,
8220DB001597,1597,Valeview Gardens,,53.380455,-6.309235,,,,
8220DB001598,1598,Valeview Drive,,53.380242,-6.30562,,,,
8220DB001599,1599,Glenties Park,,53.3809,-6.310795,,,,
8220DB001600,1600,Deanstown Avenue,,53.383597,-6.312763,,,,
8220DB001604,1604,Rathvilly Road,,53.383746,-6.316275,,,,
8220DB001605,1605,Albert College Park,,53.388253,-6.2608,,,,
8220DB001606,1606,Valeview Drive,,53.380371,-6.306442,,,,
8220DB001607,1607,Berryfield Road,,53.382161,-6.303425,,,,
8220DB001608,1608,Farnham Drive,,53.38305,-6.299541,,,,
8220DB001609,1609,Cloonlara Road,,53.380384,-6.297287,,,,
8220DB001610,1610,Tolka Valley Park,,53.378808,-6.296403,,,,
8220DB001614,1614,Church Street Upper,,53.351257,-6.273753,,,,
8220DB001615,1615,Church Street,,53.3478271653616,-6.27459733233133,,,,
8220DB001616,1616,Church Street,,53.347285,-6.275025,,,,
8220DB001617,1617,Capuchin Friary,,53.349331,-6.274807,,,,
8220DB001618,1618,Church Street Upper,,53.350887,-6.274248,,,,
8220DB001619,1619,Constitution Hill,,53.3529126950418,-6.27323519870162,,,,
8220DB001620,1620,Whitehall Church,,53.383263,-6.244106,,,,
8220DB001641,1641,Ellenfield Park,,53.386527,-6.242393,,,,
8220DB001642,1642,Whitehall Church,,53.38401,-6.24339,,,,
8220DB001643,1643,Falcarragh Road,,53.384802,-6.251003,,,,
8220DB001644,1644,DCU Collins Avenue,,53.3868700413836,-6.25657120617442,,,,
8220DB001646,1646,DCU Collins Avenue,,53.3871546494696,-6.25698053714182,,,,
8220DB001647,1647,Blackhall Place,,53.34828,-6.28221,,,,
8220DB001648,1648,Stoneybatter,,53.3510913675303,-6.28280248510502,,,,
8220DB001649,1649,Manor Street,,53.35256,-6.28428,,,,
8220DB001654,1654,St David's Terrace,,53.35611,-6.29427,,,,
8220DB001655,1655,Blackhorse Avenue,,53.356732,-6.296968,,,,
8220DB001656,1656,McKee Park,,53.3573,-6.29883,,,,
8220DB001657,1657,Dunard Walk,,53.358392,-6.303077,,,,
8220DB001658,1658,Skreen Road,,53.361989,-6.309515,,,,
8220DB001659,1659,Croaghpatrick Road,,53.36326,-6.304717,,,,
8220DB001660,1660,Nephin Road,,53.365187,-6.309374,,,,
8220DB001661,1661,Saint Mary's Convent,,53.366444,-6.313096,,,,
8220DB001662,1662,Baggot Road,,53.367603,-6.317543,,,,
8220DB001664,1664,Ashtown Grove,,53.369408,-6.323859,,,,
8220DB001665,1665,Kempton,,53.370658,-6.327702,,,,
8220DB001666,1666,Ashtown Roundabout,,53.371597,-6.330596,,,,
8220DB001667,1667,Castleknock Road,,53.37087,-6.334502,,,,
8220DB001668,1668,Old Race Course,,53.370843,-6.340304,,,,
8220DB001694,1694,Old Race Course,,53.371017,-6.339936,,,,
8220DB001695,1695,Ashtown Gate,,53.37101,-6.334256,,,,
8220DB001696,1696,Ashtown Roundabout,,53.371541,-6.329831,,,,
8220DB001697,1697,Kempton,,53.370801,-6.327666,,,,
8220DB001698,1698,Ashtown Grove,,53.369577,-6.323717,,,,
8220DB001699,1699,De Paul Pool,,53.368744,-6.321315,,,,
8220DB001700,1700,Baggot Road,,53.367709,-6.317404,,,,
8220DB001701,1701,Saint Mary's Convent,,53.366567,-6.31294,,,,
8220DB001702,1702,Roosevelt Cottages,,53.365611,-6.310138,,,,
8220DB001703,1703,Cabra Garda Station,,53.364735,-6.307348,,,,
8220DB001704,1704,Skreen Road,,53.36303,-6.30521,,,,
8220DB001705,1705,Ardpatrick Road,,53.362181,-6.308471,,,,
8220DB001706,1706,Blackhorse Avenue,,53.3600698255996,-6.30729237527244,,,,
8220DB001707,1707,Dunard Walk,,53.358428,-6.30246,,,,
8220DB001709,1709,Glenbeigh Avenue,,53.3568682016769,-6.29705299143726,,,,
8220DB001710,1710,Aughrim Street,,53.3555699040255,-6.29174149147947,,,,
8220DB001711,1711,Holy Family Church,,53.3545779754891,-6.28963290156871,,,,
8220DB001712,1712,Aughrim Court,,53.3533339170032,-6.28624259176384,,,,
8220DB001713,1713,Manor Street,,53.351908,-6.283326,,,,
8220DB001714,1714,Stoneybatter,,53.350638,-6.281889,,,,
8220DB001715,1715,Blackhall Place,,53.3477,-6.28212,,,,
8220DB001724,1724,The Oaks,,53.365715,-6.174442,,,,
8220DB001725,1725,Doyles Lane,,53.36376,-6.17708,,,,
8220DB001726,1726,Dollymount Park,,53.362291,-6.179186,,,,
8220DB001727,1727,North Bull Island,,53.360447,-6.183186,,,,
8220DB001728,1728,Clontarf Coast,,53.359656,-6.186165,,,,
8220DB001729,1729,Clontarf Depot,,53.358497,-6.190315,,,,
8220DB001730,1730,Vernon Court,,53.358231,-6.194128,,,,
8220DB001731,1731,Clontarf Village,,53.359077,-6.196556,,,,
8220DB001732,1732,Oultan Road,,53.360063,-6.202344,,,,
8220DB001733,1733,Clontarf Baths,,53.360213,-6.20632,,,,
8220DB001734,1734,Castle Avenue,,53.360391,-6.211015,,,,
8220DB001735,1735,Seaview Avenue,,53.361143,-6.214439,,,,
8220DB001736,1736,Saint Lawrence Road,,53.362142,-6.216922,,,,
8220DB001737,1737,Strandville Avenue,,53.362858,-6.219717,,,,
8220DB001738,1738,Clontarf Road Station,,53.363451,-6.223914,,,,
8220DB001740,1740,Clontarf Road Station,,53.364032,-6.226107,,,,
8220DB001741,1741,Strandville Avenue,,53.363117,-6.220803,,,,
8220DB001742,1742,Saint Lawrence Road,,53.362126,-6.216427,,,,
8220DB001743,1743,Seaview Avenue,,53.361136,-6.213929,,,,
8220DB001744,1744,Castle Avenue,,53.360349,-6.208793,,,,
8220DB001745,1745,Clontarf Baths,,53.360347,-6.205698,,,,
8220DB001746,1746,Oultan Road,,53.360256,-6.202667,,,,
8220DB001747,1747,Clontarf Village,,53.359351,-6.19686,,,,
8220DB001748,1748,Vernon Court,,53.358257,-6.193466,,,,
8220DB001749,1749,Clontarf Depot,,53.35859,-6.190552,,,,
8220DB001750,1750,Saint Anne's Park,,53.368834,-6.177831,,,,
8220DB001751,1751,Clontarf Coast,,53.35987,-6.185434,,,,
8220DB001752,1752,North Bull Island,,53.361128,-6.18185,,,,
8220DB001753,1753,Dollymount Park,,53.362724,-6.178672,,,,
8220DB001754,1754,Doyles Lane,,53.364116,-6.176809,,,,
8220DB001755,1755,Seapark Apartments,,53.36636,-6.187136,,,,
8220DB001756,1756,Dollymount Avenue,,53.36721,-6.182853,,,,
8220DB001757,1757,Park Lawn,,53.36863,-6.182237,,,,
8220DB001758,1758,Baymount Park,,53.36813,-6.17539,,,,
8220DB001759,1759,The Oaks,,53.366,-6.174264,,,,
8220DB001760,1760,Seapark Apartments,,53.365972,-6.18776,,,,
8220DB001761,1761,Seapark Road,,53.363837,-6.188046,,,,
8220DB001762,1762,Seafield Road East,,53.363751,-6.19125,,,,
8220DB001763,1763,Seafield Road West,,53.364393,-6.195442,,,,
8220DB001764,1764,Blackheath Court,,53.365893,-6.195577,,,,
8220DB001765,1765,Blackheath Park,,53.366551,-6.202281,,,,
8220DB001767,1767,Clontarf Castle,,53.363827,-6.205221,,,,
8220DB001769,1769,Park Lawn,,53.368876,-6.181884,,,,
8220DB001770,1770,Dollymount Avenue,,53.367086,-6.182751,,,,
8220DB001771,1771,Saint Gabriel's Road,,53.366042,-6.185247,,,,
8220DB001772,1772,Clontarf Cemetery,,53.365026,-6.205069,,,,
8220DB001773,1773,Blackheath Park,,53.366811,-6.203398,,,,
8220DB001774,1774,Blackheath Court,,53.366136,-6.1974,,,,
8220DB001775,1775,Seafield Road West,,53.36444,-6.195188,,,,
8220DB001776,1776,Seafield Road East,,53.363877,-6.191842,,,,
8220DB001777,1777,Seafield Avenue,,53.366339,-6.190699,,,,
8220DB001778,1778,Mount Prospect Park,,53.366614,-6.18916,,,,
8220DB001782,1782,Mask Crescent,,53.38239,-6.198172,,,,
8220DB001783,1783,McAuley Road,,53.383803,-6.195962,,,,
8220DB001784,1784,Ennel Drive,,53.384621,-6.192981,,,,
8220DB001785,1785,McAuley Drive,,53.382596,-6.191624,,,,
8220DB001786,1786,Ribh Road,,53.381994,-6.192235,,,,
8220DB001788,1788,Millbrook Road,,53.391614,-6.178806,,,,
8220DB001789,1789,Clonrosse Drive,,53.394263,-6.178603,,,,
8220DB001791,1791,Blunden Drive,,53.396587,-6.181947,,,,
8220DB001792,1792,Clonrosse Drive,,53.393525,-6.178559,,,,
8220DB001793,1793,Millbrook Road,,53.391684,-6.178698,,,,
8220DB001794,1794,Saint Anne's Park,,53.36948,-6.179419,,,,
8220DB001795,1795,Rosecourt,,53.361503,-6.296868,,,,
8220DB001796,1796,Ribh Road,,53.381789,-6.191177,,,,
8220DB001797,1797,McAuley Drive,,53.383128,-6.191721,,,,
8220DB001798,1798,Ennel Drive,,53.384384,-6.19454,,,,
8220DB001799,1799,McAuley Road,,53.383059,-6.196655,,,,
8220DB001800,1800,Mask Crescent,,53.382307,-6.199243,,,,
8220DB001801,1801,Gracefield Road,,53.382397,-6.202245,,,,
8220DB001802,1802,Cabra Road,,53.36142,-6.29461,,,,
8220DB001803,1803,Cabra Road,,53.36151,-6.29394,,,,
8220DB001804,1804,Rosecourt,,53.36163,-6.29735,,,,
8220DB001805,1805,Dunard,,53.361163,-6.297558,,,,
8220DB001806,1806,Skreen Road,,53.362907,-6.302642,,,,
8220DB001807,1807,Old Racecourse,,53.374415,-6.339263,,,,
8220DB001847,1847,Old Racecourse,,53.372902,-6.333926,,,,
8220DB001905,1905,Skreen Road,,53.363318,-6.303077,,,,
8220DB001906,1906,Old Cabra Road,,53.361201,-6.297076,,,,
8220DB001907,1907,Glenbeigh Road,,53.359905,-6.293822,,,,
8220DB001908,1908,Cabra Drive,,53.358691,-6.291256,,,,
8220DB001909,1909,Prussia Street,,53.35696,-6.288411,,,,
8220DB001911,1911,Prussia Street,,53.356538,-6.2883,,,,
8220DB001913,1913,Cabra Drive,,53.358806,-6.291792,,,,
8220DB001914,1914,Glenbeigh Road,,53.360216,-6.294816,,,,
8220DB001934,1934,Dame Street,,53.344118,-6.265525,,,,
8220DB001935,1935,Lord Edward Street,,53.343934,-6.268326,,,,
8220DB001937,1937,High Street,,53.343088,-6.273152,,,,
8220DB001938,1938,Cornmarket,,53.342978,-6.276761,,,,
8220DB001939,1939,Thomas Street,,53.342998,-6.280665,,,,
8220DB001940,1940,Watling Street,,53.343539,-6.285734,,,,
8220DB001941,1941,James's Street,,53.343345,-6.289181,,,,
8220DB001942,1942,St James Hospital,,53.34215,-6.29468,,,,
8220DB001944,1944,Old Kilmainham,,53.3406753265043,-6.3036154053404,,,,
8220DB001945,1945,Inchicore Library,,53.3405547841693,-6.30968740041896,,,,
8220DB001946,1946,Emmet Road,,53.340119,-6.316357,,,,
8220DB001947,1947,Inchicore Village,,53.339818,-6.317961,,,,
8220DB001948,1948,Tyrconnell Road North,,53.338662,-6.322046,,,,
8220DB001949,1949,Tyrconnell Park,,53.337641,-6.323618,,,,
8220DB001950,1950,Oblate Church,,53.336021,-6.325994,,,,
8220DB001951,1951,Bluebell Road,,53.333135,-6.329125,,,,
8220DB001952,1952,Hollybrook House,,53.33171,-6.330037,,,,
8220DB001953,1953,Grove Court,,53.329994,-6.332086,,,,
8220DB001954,1954,Bluebell,,53.328774,-6.334806,,,,
8220DB001955,1955,Concorde Business Park,,53.327946,-6.337916,,,,
8220DB001956,1956,Kylemore,,53.326365,-6.343847,,,,
8220DB001981,1981,Robinhood Road,,53.326487,-6.344818,,,,
8220DB001982,1982,Kylemore,,53.32723,-6.342027,,,,
8220DB001984,1984,Bluebell,,53.329445,-6.333894,,,,
8220DB001985,1985,Bluebell Road,,53.332924,-6.329449,,,,
8220DB001986,1986,Tyrconnell Road South,,53.335355,-6.327236,,,,
8220DB001987,1987,Oblate Church,,53.33629,-6.325939,,,,
8220DB001988,1988,Tyrconnell Road North,,53.33826,-6.322888,,,,
8220DB001989,1989,Inchicore Village,,53.339706,-6.318987,,,,
8220DB001990,1990,Myra Cottages,,53.340472781795,-6.31469157313953,,,,
8220DB001992,1992,Inchicore Library,,53.3406544981518,-6.30911277701976,,,,
8220DB001993,1993,Old Kilmainham,,53.3408,-6.30466,,,,
8220DB001994,1994,Mount Brown,,53.3414239628449,-6.29938060050009,,,,
8220DB001995,1995,James's Luas,,53.342675,-6.293218,,,,
8220DB001996,1996,James's Street,,53.34356,-6.288482,,,,
8220DB001997,1997,Watling Street,,53.34364,-6.28542,,,,
8220DB001998,1998,Thomas Street,,53.34314,-6.280494,,,,
8220DB001999,1999,Cornmarket,,53.343119,-6.27659,,,,
8220DB002001,2001,High Street,,53.343311,-6.273653,,,,
8220DB002002,2002,Lord Edward Street,,53.343771,-6.269444,,,,
8220DB002003,2003,Lord Edward Street,,53.344041,-6.268262,,,,
8220DB002085,2085,RTE,,53.315174,-6.220186,,,,
8220DB002086,2086,Nutley Avenue,,53.318157,-6.214703,,,,
8220DB002087,2087,Ailesbury Road,,53.32061,-6.21283,,,,
8220DB002088,2088,St Vincent's Hospital,,53.3172966893469,-6.21609017469623,,,,
8220DB002089,2089,RTE,,53.315302,-6.219746,,,,
8220DB002094,2094,Coombe Hospital,,53.334752,-6.289751,,,,
8220DB002095,2095,Crumlin College,,53.329037,-6.302471,,,,
8220DB002096,2096,Iveagh Grounds,,53.328084,-6.306818,,,,
8220DB002097,2097,Raphoe Road,,53.327433,-6.309726,,,,
8220DB002099,2099,Crumlin Hospital,,53.325562,-6.3166,,,,
8220DB002101,2101,Drimnagh Road,,53.324955,-6.318171,,,,
8220DB002102,2102,Balfe Road,,53.324194846075,-6.32614190218012,,,,
8220DB002103,2103,Walkinstown Shopping Centre,,53.322083,-6.329992,,,,
8220DB002105,2105,Long Mile Road,,53.323653,-6.337497,,,,
8220DB002181,2181,Long Mile Road,,53.323838,-6.339171,,,,
8220DB002182,2182,Walkinstown Parade,,53.323962,-6.335188,,,,
8220DB002183,2183,Walkinstown Shopping Centre,,53.321703980838,-6.33054760884826,,,,
8220DB002184,2184,Walkinstown Road North,,53.322997,-6.329146,,,,
8220DB002185,2185,Balfe Road,,53.324259,-6.32749,,,,
8220DB002186,2186,Raphoe Road,,53.326933,-6.312538,,,,
8220DB002187,2187,Iveagh Grounds,,53.328045,-6.307284,,,,
8220DB002188,2188,Crumlin College,,53.329017,-6.302922,,,,
8220DB002189,2189,Crumlin Shopping Centre,,53.329695,-6.300072,,,,
8220DB002190,2190,Dolphin House,,53.332771,-6.292608,,,,
8220DB002191,2191,Islandbridge Gate,,53.348026,-6.310443,,,,
8220DB002192,2192,Salmon Pool,,53.347246,-6.315671,,,,
8220DB002193,2193,Garda Boat Club,,53.346385,-6.323455,,,,
8220DB002194,2194,Chapelizod Road,,53.346193,-6.328404,,,,
8220DB002195,2195,Saint Mary's Hospital,,53.346744,-6.33759,,,,
8220DB002196,2196,Chapelizod Village,,53.347835,-6.341678,,,,
8220DB002197,2197,Chapelizod West,,53.348166,-6.346742,,,,
8220DB002198,2198,Belgrove Park,,53.3506251417953,-6.35106328860524,,,,
8220DB002200,2200,Kylemore Road North,,53.350283,-6.352954,,,,
8220DB002243,2243,Glenaulin,,53.3519743826815,-6.35569799515708,,,,
8220DB002244,2244,Belgrove Park,,53.3508843467058,-6.35160907436146,,,,
8220DB002245,2245,Chapelizod West,,53.349463,-6.348284,,,,
8220DB002246,2246,Chapelizod Village,,53.34827,-6.34363,,,,
8220DB002247,2247,Saint Mary's Hospital,,53.346753,-6.336283,,,,
8220DB002248,2248,Chapelizod Road,,53.346321,-6.327889,,,,
8220DB002249,2249,Garda Boat Club,,53.34658,-6.32125,,,,
8220DB002250,2250,Salmon Pool,,53.347439,-6.315333,,,,
8220DB002251,2251,Islandbridge Gate,,53.348132,-6.31098,,,,
8220DB002255,2255,North Strand Fire Station,,53.36023,-6.238262,,,,
8220DB002256,2256,Portside Court,,53.358349,-6.23565,,,,
8220DB002257,2257,West Road,,53.356382,-6.23821,,,,
8220DB002258,2258,Saint Mary's Road North,,53.354654,-6.238011,,,,
8220DB002259,2259,Church Road West,,53.353538,-6.23672,,,,
8220DB002260,2260,Church Road South,,53.351779,-6.235035,,,,
8220DB002262,2262,Merchants Road,,53.353523,-6.226596,,,,
8220DB002270,2270,Dublin Ferry Port Terminal 1,,53.345706,-6.195619,,,,
8220DB002274,2274,Alexandra Road East,,53.350186,-6.203631,,,,
8220DB002278,2278,Bargy Road,,53.354336,-6.229928,,,,
8220DB002279,2279,East Road,,53.352941,-6.231622,,,,
8220DB002280,2280,Church Road South,,53.352312,-6.237056,,,,
8220DB002281,2281,Church Road West,,53.353664,-6.23673,,,,
8220DB002282,2282,Saint Mary's Road North,,53.354841,-6.238529,,,,
8220DB002283,2283,Portside Court,,53.358326,-6.235937,,,,
8220DB002310,2310,Werburgh Street,,53.342446,-6.269798,,,,
8220DB002311,2311,Kevin Street,,53.338285,-6.270492,,,,
8220DB002312,2312,Saint Luke's Avenue,,53.338879,-6.275484,,,,
8220DB002313,2313,Newmarket,,53.338742,-6.278478,,,,
8220DB002314,2314,Weaver Park,,53.33825,-6.28068,,,,
8220DB002315,2315,Cork Street,,53.337536,-6.285239,,,,
8220DB002317,2317,Saint Mary's Road,,53.323419,-6.318877,,,,
8220DB002318,2318,Somerville Avenue,,53.32198,-6.318843,,,,
8220DB002319,2319,Saint Agnes Church,,53.319565,-6.3152,,,,
8220DB002327,2327,Ashleaf,,53.316854,-6.316763,,,,
8220DB002328,2328,Saint Agnes Church,,53.31959,-6.31552,,,,
8220DB002329,2329,Crumlin Village,,53.320901,-6.316934,,,,
8220DB002330,2330,Somerville Avenue,,53.322148,-6.319287,,,,
8220DB002331,2331,Saint Mary's Road,,53.324572,-6.317795,,,,
8220DB002332,2332,Walkinstown Mall,,53.320875,-6.331015,,,,
8220DB002333,2333,Walkinstown Roundabout,,53.317842,-6.332665,,,,
8220DB002378,2378,Walkinstown Roundabout,,53.318148,-6.332698,,,,
8220DB002379,2379,Cork Street,,53.337833,-6.284642,,,,
8220DB002380,2380,Weaver Park,,53.33851,-6.28031,,,,
8220DB002382,2382,Newmarket,,53.338858,-6.278383,,,,
8220DB002383,2383,Saint Patrick's Cathedral,,53.339458,-6.272653,,,,
8220DB002385,2385,Patrick Street,,53.3423151191354,-6.27195136781826,,,,
8220DB002386,2386,New Street South,,53.337907,-6.272325,,,,
8220DB002387,2387,Long Lane,,53.3365844247191,-6.27282879101049,,,,
8220DB002388,2388,Clanbrassil Lower,,53.334459,-6.274386,,,,
8220DB002389,2389,Harold's Cross Park,,53.32489,-6.27912,,,,
8220DB002390,2390,Mount Argus Mill,,53.321529,-6.28399,,,,
8220DB002391,2391,Mount Argus Park,,53.320197,-6.28643,,,,
8220DB002392,2392,Kimmage,,53.318749,-6.291351,,,,
8220DB002393,2393,Aideen Avenue,,53.315204,-6.295455,,,,
8220DB002394,2394,Kimmage Cross Roads,,53.313259,-6.297754,,,,
8220DB002395,2395,Fortfield Road North,,53.311502,-6.300585,,,,
8220DB002396,2396,Wainsfort Park,,53.308819,-6.302178,,,,
8220DB002397,2397,College Drive,,53.306589,-6.300855,,,,
8220DB002398,2398,Fortfield Road South,,53.30526,-6.29974,,,,
8220DB002409,2409,Fortfield Road South,,53.305391,-6.300048,,,,
8220DB002410,2410,College Drive,,53.3068543722854,-6.30117510851375,,,,
8220DB002411,2411,Wainsfort Park,,53.3091732491352,-6.30243364694296,,,,
8220DB002412,2412,Fortfield Road North,,53.310935,-6.301824,,,,
8220DB002413,2413,Whitehall Road East,,53.312866,-6.305484,,,,
8220DB002414,2414,Westbrook,,53.314074,-6.310854,,,,
8220DB002415,2415,Royston Village,,53.3150567500034,-6.31357689259081,,,,
8220DB002416,2416,Ashleaf,,53.316339,-6.317819,,,,
8220DB002417,2417,Cherry Grove,,53.31669,-6.32296,,,,
8220DB002418,2418,Bigger Road,,53.316969952115,-6.32688995930814,,,,
8220DB002419,2419,Walkinstown Roundabout,,53.31708,-6.330248,,,,
8220DB002431,2431,Walkinstown Roundabout,,53.317203,-6.330708,,,,
8220DB002432,2432,Bigger Road,,53.317014,-6.325507,,,,
8220DB002433,2433,Cherry Grove,,53.31663,-6.32067,,,,
8220DB002434,2434,Ashleaf,,53.316027,-6.31606,,,,
8220DB002435,2435,Westbrook,,53.314314,-6.311295,,,,
8220DB002436,2436,Lorcan O'Toole Park,,53.313706,-6.308948,,,,
8220DB002437,2437,Kimmage Road West,,53.312689,-6.302519,,,,
8220DB002438,2438,Kimmage Cross Roads,,53.312489,-6.299255,,,,
8220DB002439,2439,Ravensdale Park,,53.313546,-6.297698,,,,
8220DB002440,2440,Aideen Avenue,,53.3164008747397,-6.29432691528977,,,,
8220DB002441,2441,Kimmage,,53.31918,-6.29107,,,,
8220DB002442,2442,Mount Argus Park,,53.320452,-6.286029,,,,
8220DB002443,2443,Mount Argus Mill,,53.321892,-6.283645,,,,
8220DB002444,2444,Harold's Cross Park,,53.324298,-6.279675,,,,
8220DB002448,2448,Cashel Road,,53.3193092472153,-6.30414780696661,,,,
8220DB002449,2449,Armagh Road,,53.320985,-6.305072,,,,
8220DB002450,2450,Armagh Road West,,53.320231,-6.307669,,,,
8220DB002451,2451,Saint Agnes' Park,,53.319166,-6.314316,,,,
8220DB002452,2452,Saint Peter's Road North,,53.31614,-6.33199,,,,
8220DB002453,2453,Saint James's Road,,53.314828,-6.330531,,,,
8220DB002462,2462,Saint James's Road,,53.31388,-6.33009,,,,
8220DB002463,2463,Saint Peter's Road North,,53.31531,-6.33132,,,,
8220DB002464,2464,Saint Agnes' Park,,53.319481,-6.313102,,,,
8220DB002465,2465,Armagh Road West,,53.319989,-6.308939,,,,
8220DB002466,2466,Armagh Road East,,53.320654,-6.306451,,,,
8220DB002467,2467,Cashel Road,,53.3192341833888,-6.30392562805676,,,,
8220DB002471,2471,Larkfield Park,,53.318682,-6.289148,,,,
8220DB002472,2472,Larkfield Grove,,53.317678,-6.2856,,,,
8220DB002473,2473,Clareville Road,,53.317889,-6.283385,,,,
8220DB002474,2474,Westfield Road,,53.318756,-6.28182,,,,
8220DB002475,2475,Kenilworth Park,,53.318866,-6.280089,,,,
8220DB002476,2476,Kenilworth Square,,53.319044,-6.27747,,,,
8220DB002477,2477,Kenilworth Road,,53.319878,-6.274239,,,,
8220DB002478,2478,Grosvenor Road,,53.32054,-6.26975,,,,
8220DB002479,2479,Grosvenor Road,,53.3202340044282,-6.27027690461026,,,,
8220DB002480,2480,Kenilworth Road,,53.319744,-6.274335,,,,
8220DB002481,2481,Harolds Cross Road,,53.318738,-6.278083,,,,
8220DB002482,2482,Westfield Road,,53.318921,-6.281393,,,,
8220DB002483,2483,Clareville Road,,53.317598,-6.284418,,,,
8220DB002484,2484,Larkfield Park,,53.318547,-6.289153,,,,
8220DB002485,2485,Kimmage,,53.319792,-6.29134,,,,
8220DB002486,2486,Blarney Park,,53.3210753974037,-6.29311972472245,,,,
8220DB002487,2487,Éamonn Ceannt Park,,53.321816,-6.295282,,,,
8220DB002488,2488,Stannaway Road,,53.320355,-6.298718,,,,
8220DB002489,2489,Clonfert Road,,53.319415,-6.300856,,,,
8220DB002494,2494,Clonfert Road,,53.319697,-6.300425,,,,
8220DB002495,2495,Stannaway Road,,53.32122,-6.296942,,,,
8220DB002496,2496,Éamonn Ceannt Park,,53.321968,-6.293925,,,,
8220DB002497,2497,Kimmage,,53.32033,-6.291904,,,,
8220DB002498,2498,IFSC,,53.34828,-6.25027,,,,
8220DB002499,2499,Sean O'Casey Bridge,,53.348128,-6.247128,,,,
8220DB002500,2500,Samuel Beckett Bridge,,53.347788,-6.24238,,,,
8220DB002501,2501,North Wall Quay,,53.347376,-6.236359,,,,
8220DB002502,2502,New Wapping Street,,53.34913,-6.2353,,,,
8220DB002508,2508,Merchants Road,,53.352864,-6.225812,,,,
8220DB002634,2634,Leonard's Corner,,53.332891,-6.27538,,,,
8220DB002635,2635,Clanbrassil Lower,,53.334251,-6.27492,,,,
8220DB002636,2636,Long Lane,,53.33658,-6.273174,,,,
8220DB002637,2637,Heuston Station,,53.345846,-6.294308,,,,
8220DB002638,2638,St Johns Road West,,53.345659,-6.296959,,,,
8220DB002640,2640,Kilmainham Gaol,,53.342045,-6.308893,,,,
8220DB002641,2641,Inchicore Road,,53.341966,-6.315414,,,,
8220DB002642,2642,Grattan Crescent,,53.341209,-6.319739,,,,
8220DB002643,2643,Sarsfield Road,,53.34154,-6.320927,,,,
8220DB002644,2644,Sarsfield Medical,,53.3419905931282,-6.32738226562619,,,,
8220DB002645,2645,Lally Road,,53.341696,-6.330773,,,,
8220DB002646,2646,Decies Road,,53.341495,-6.333679,,,,
8220DB002647,2647,Markievicz Park,,53.3406470674021,-6.33800739822258,,,,
8220DB002648,2648,Ramillies Road,,53.3397230210145,-6.34265370103926,,,,
8220DB002649,2649,Thomond Road,,53.3391105767283,-6.34580104128991,,,,
8220DB002650,2650,Landen Road,,53.3377655575806,-6.346679023362,,,,
8220DB002652,2652,Kylemore Avenue,,53.3388459496904,-6.34810890913175,,,,
8220DB002653,2653,Ballyfermot Crescent,,53.3402347651824,-6.34844568463056,,,,
8220DB002654,2654,Ballyfermot Road,,53.341298730205,-6.34868990718238,,,,
8220DB002655,2655,Ballyfermot Parade,,53.3421381592165,-6.35284757646734,,,,
8220DB002656,2656,Ballyfermot,,53.342624,-6.358716,,,,
8220DB002657,2657,Clifden Road,,53.3413170608764,-6.36175486590333,,,,
8220DB002658,2658,Oranmore Road,,53.3391624351795,-6.36128182324467,,,,
8220DB002659,2659,Raheen Park Estate,,53.3370212365361,-6.36047794826205,,,,
8220DB002660,2660,Cherry Orchard Avenue,,53.3357750383143,-6.36070594347998,,,,
8220DB002661,2661,Cherry Orchard Drive,,53.3354860616875,-6.36519177724852,,,,
8220DB002662,2662,Cherry Orchard Way,,53.336793,-6.370097,,,,
8220DB002663,2663,Croftwood Crescent,,53.3369139961318,-6.37036287855574,,,,
8220DB002664,2664,Cherry Orchard Drive,,53.3356011989999,-6.36506724567256,,,,
8220DB002665,2665,Croftwood Park,,53.3358803625996,-6.36052171092519,,,,
8220DB002666,2666,Clifden Drive,,53.3376007023392,-6.36078608663142,,,,
8220DB002667,2667,Clifden Road,,53.3406976282684,-6.36180864778955,,,,
8220DB002668,2668,Ballyfermot Community Centre,,53.342983,-6.363283,,,,
8220DB002670,2670,Spiddal Park,,53.34039,-6.367557,,,,
8220DB002672,2672,Cleggan Park,,53.3433589409048,-6.36777417735812,,,,
8220DB002688,2688,Cleggan Park,,53.343463,-6.368191,,,,
8220DB002689,2689,Blackditch Drive,,53.343106,-6.363744,,,,
8220DB002696,2696,Ballyfermot,,53.342688,-6.358804,,,,
8220DB002697,2697,Ballyfermot Parade,,53.342278,-6.353173,,,,
8220DB002700,2700,Kylemore Road,,53.3412966525983,-6.34853980731358,,,,
8220DB002701,2701,Ballyfermot Crescent,,53.3401698049064,-6.34829801891189,,,,
8220DB002702,2702,Kylemore Avenue,,53.3381032999033,-6.34770212371673,,,,
8220DB002703,2703,Thomond Road,,53.3382847108016,-6.34652378732584,,,,
8220DB002704,2704,Decies Road,,53.339239,-6.345345,,,,
8220DB002706,2706,Garryowen Road,,53.340033,-6.341696,,,,
8220DB002708,2708,Landen Road,,53.3418337142023,-6.33287006533031,,,,
8220DB002709,2709,Longmeadows,,53.342992781435,-6.33348566501732,,,,
8220DB002710,2710,Ballyfermot Road,,53.342115,-6.339512,,,,
8220DB002711,2711,Markievicz Park,,53.341783,-6.341523,,,,
8220DB002712,2712,St Gabriel's School,,53.342459848185,-6.34556625983834,,,,
8220DB002713,2713,St Gabriel's School,,53.3424806534687,-6.34706729796392,,,,
8220DB002714,2714,Markievicz Park,,53.3419051123135,-6.34186321373163,,,,
8220DB002715,2715,O'Hogan Road,,53.342613,-6.338661,,,,
8220DB002716,2716,Sarsfield Road,,53.3428406256586,-6.33224505599933,,,,
8220DB002717,2717,Crescent Gardens,,53.357243,-6.237469,,,,
8220DB002718,2718,St Mary's Avenue,,53.3422822606705,-6.32767121720049,,,,
8220DB002719,2719,Woodfield Place,,53.3416457682976,-6.32011193943824,,,,
8220DB002720,2720,Church Road East,,53.352056,-6.233116,,,,
8220DB002721,2721,South Circular Road,,53.3432718551658,-6.31051108491761,,,,
8220DB002722,2722,South Circular Road,,53.343437,-6.311391,,,,
8220DB002726,2726,Slievebloom Park,,53.323814,-6.33042,,,,
8220DB002727,2727,Drimnagh Castle,,53.323759,-6.332884,,,,
8220DB002728,2728,Walkinstown Park,,53.32137,-6.339477,,,,
8220DB002729,2729,Walkinstown Park Estate,,53.319110612096,-6.33599249403811,,,,
8220DB002730,2730,Walkinstown Community Centre,,53.3179354289289,-6.33422202603397,,,,
8220DB002774,2774,Walkinstown Avenue,,53.318261,-6.33499,,,,
8220DB002775,2775,Ep Mooney Park,,53.322777,-6.341104,,,,
8220DB002777,2777,Walkinstown Park Estate,,53.3191699520228,-6.33638045222645,,,,
8220DB002778,2778,Drimnagh Castle,,53.324024,-6.331943,,,,
8220DB002788,2788,Castlewood Avenue,,53.322839,-6.263341,,,,
8220DB002789,2789,Charleston Avenue,,53.323716,-6.259433,,,,
8220DB002790,2790,Oakley Road,,53.324638,-6.256648,,,,
8220DB002791,2791,Ranelagh Luas,,53.32499,-6.25537,,,,
8220DB002793,2793,Belgrave Square North,,53.3232622422406,-6.26095213828522,,,,
8220DB002794,2794,Castlewood Avenue,,53.322611,-6.264341,,,,
8220DB002795,2795,Leeson Street Upper,,53.32853,-6.246265,,,,
8220DB002796,2796,Pembroke Road,,53.332699,-6.240673,,,,
8220DB002797,2797,Northumberland Road,,53.33226039426,-6.23653195679318,,,,
8220DB002798,2798,Pembroke Road,,53.331999,-6.235882,,,,
8220DB002799,2799,Eastmoreland Place,,53.332692,-6.242025,,,,
8220DB002800,2800,Sandymount Avenue,,53.327144,-6.22248,,,,
8220DB002801,2801,Wilfield Park,,53.329244,-6.218655,,,,
8220DB002806,2806,Sandymount Avenue,,53.330377,-6.216265,,,,
8220DB002807,2807,Wilfield Park,,53.328756,-6.21902,,,,
8220DB002808,2808,Sandymount Station,,53.326811,-6.223065,,,,
8220DB002809,2809,Pearse Station,,53.34306,-6.24984,,,,
8220DB002810,2810,Merrion Square West,,53.340795,-6.250897,,,,
8220DB002811,2811,Merrion Street,,53.33936,-6.252308,,,,
8220DB002812,2812,Charlemont Street,,53.331927,-6.262236,,,,
8220DB002813,2813,Ranelagh Road,,53.328712,-6.258674,,,,
8220DB002814,2814,Ranelagh Luas,,53.326034,-6.25563,,,,
8220DB002815,2815,Milltown Road,,53.315851,-6.245269,,,,
8220DB002816,2816,Glenmalure Square,,53.314266,-6.246264,,,,
8220DB002817,2817,Alexandra College,,53.311152,-6.247863,,,,
8220DB002898,2898,Alexandra College,,53.311166,-6.248162,,,,
8220DB002899,2899,Garrynure,,53.31637,-6.245112,,,,
8220DB002900,2900,Ranelagh Luas,,53.325936,-6.255739,,,,
8220DB002901,2901,Ranelagh Road,,53.327343,-6.258504,,,,
8220DB002902,2902,Northbrook Road,,53.328888,-6.259012,,,,
8220DB002903,2903,Charlemont Street,,53.331337,-6.26162,,,,
8220DB002905,2905,Merrion Square West,,53.340029,-6.25198,,,,
8220DB002906,2906,Blackditch Road,,53.33891414229,-6.37335010518135,,,,
8220DB002907,2907,Orchard Lawns,,53.340255,-6.372173,,,,
8220DB002909,2909,St Ultans School,,53.3374092423338,-6.37372272985241,,,,
8220DB002910,2910,Spiddal Road,,53.3410659893927,-6.37164626600924,,,,
8220DB002911,2911,Cherry Orchard Park,,53.338744073256,-6.37340162942585,,,,
8220DB002914,2914,Orwell Road,,53.310955,-6.273789,,,,
8220DB002915,2915,Zion Road,,53.309408,-6.273701,,,,
8220DB002916,2916,Bushy Park Road,,53.307637,-6.274943,,,,
8220DB002917,2917,Meadowbank,,53.307487,-6.277605,,,,
8220DB002918,2918,Riversdale Avenue,,53.307371,-6.280806,,,,
8220DB002957,2957,McKee Avenue North,,53.396234,-6.302594,,,,
8220DB002958,2958,McKee Avenue,,53.394406,-6.301088,,,,
8220DB002985,2985,Bushy Park Road,,53.307297,-6.283135,,,,
8220DB002986,2986,Meadowbank,,53.307598,-6.27658,,,,
8220DB002988,2988,Zion Road,,53.30838,-6.27357,,,,
8220DB002989,2989,Rostrevor Terrace,,53.308041,-6.27056,,,,
8220DB002990,2990,Orwell Gardens,,53.306214,-6.267272,,,,
8220DB002999,2999,Orwell Gardens,,53.306035,-6.267325,,,,
8220DB003000,3000,Rostrevor Terrace,,53.307862,-6.270597,,,,
8220DB003001,3001,Orwell Mews,,53.310289,-6.273711,,,,
8220DB003002,3002,Orwell Road,,53.311221,-6.274168,,,,
8220DB003353,3353,Downpatrick Road,,53.327742,-6.297958,,,,
8220DB003354,3354,Clogher Road,,53.3264,-6.297111,,,,
8220DB003355,3355,Slane Road,,53.325482,-6.297718,,,,
8220DB003356,3356,Bangor Road,,53.324852,-6.30076,,,,
8220DB003357,3357,Clonmacnoise Grove,,53.321974,-6.301911,,,,
8220DB003358,3358,Lismore Road,,53.321132,-6.3034,,,,
8220DB003360,3360,Clonmacnoise Road,,53.321779,-6.30399,,,,
8220DB003361,3361,Clogher Road,,53.32624,-6.297252,,,,
8220DB003362,3362,Downpatrick Road,,53.327437,-6.298015,,,,
8220DB003562,3562,Glenmalure Square,,53.314554,-6.246297,,,,
8220DB003952,3952,Rutland Avenue,,53.3316839465194,-6.29455799199739,,,,
8220DB004320,4320,Heuston Station,,53.346641,-6.292084,,,,
8220DB004322,4322,Ashington Park,,53.373473,-6.311255,,,,
8220DB004363,4363,Berryfield Road,,53.381712,-6.303443,,,,
8220DB004364,4364,Cappagh Hospital,,53.3929113883189,-6.32252918543635,,,,
8220DB004369,4369,Oakwood Road,,53.397265,-6.292357,,,,
8220DB004371,4371,Fassaugh Avenue,,53.365929,-6.29268,,,,
8220DB004372,4372,Ballygall Road East,,53.382049,-6.2761,,,,
8220DB004376,4376,McKee Road,,53.3924080528212,-6.29273239173514,,,,
8220DB004377,4377,McKee Road North,,53.3944892873129,-6.28994244366248,,,,
8220DB004378,4378,Cremore Crescent,,53.378836,-6.2765,,,,
8220DB004380,4380,Talbot Street East,,53.350846,-6.253505,,,,
8220DB004382,4382,Donnycarney,,53.374964,-6.219678,,,,
8220DB004383,4383,Coláiste Dhúlaigh,,53.396318,-6.211132,,,,
8220DB004385,4385,Saint Brendan's Church,,53.388531,-6.198965,,,,
8220DB004386,4386,Watermill Drive,,53.3780491481758,-6.17516159450503,,,,
8220DB004388,4388,Glin Avenue,,53.398731,-6.206008,,,,
8220DB004389,4389,Clanawley Road,,53.373464,-6.210692,,,,
8220DB004390,4390,Killester Avenue,,53.37189,-6.207662,,,,
8220DB004399,4399,Carrow Road,,53.332527,-6.321026,,,,
8220DB004400,4400,Galtymore Road,,53.33434,-6.31938,,,,
8220DB004406,4406,Concorde Business Park,,53.328089,-6.338511,,,,
8220DB004407,4407,Victoria Quay,,53.346488,-6.285165,,,,
8220DB004408,4408,Phoenix House,,53.348333,-6.301103,,,,
8220DB004413,4413,Heuston Station,,53.34623,-6.29242,,,,
8220DB004414,4414,Convent Lawns,,53.3443370217347,-6.35001432213045,,,,
8220DB004432,4432,Seven Oaks,,53.377207,-6.248564,,,,
8220DB004434,4434,Coombe Hospital,,53.335868,-6.289256,,,,
8220DB004455,4455,Ailesbury Road,,53.320655,-6.214059,,,,
8220DB004456,4456,Aungier Street,,53.339914,-6.265696,,,,
8220DB004458,4458,Military Cemetery,,53.3604500535096,-6.30811869453342,,,,
8220DB004466,4466,Glenfarne Road,,53.388419,-6.189783,,,,
8220DB004468,4468,West Road,,53.356784,-6.238028,,,,
8220DB004469,4469,East Road,,53.35346,-6.23118,,,,
8220DB004472,4472,St Anne's Avenue,,53.376362,-6.178285,,,,
8220DB004479,4479,Clune Road,,53.391304,-6.29413,,,,
8220DB004481,4481,Cabra PO,,53.364614,-6.286902,,,,
8220DB004485,4485,Naomh Fionnbarra GAA,,53.3655416312174,-6.28950928389668,,,,
8220DB004494,4494,Hawkins Street,,53.346962,-6.257104,,,,
8220DB004495,4495,Hawkins Street,,53.346493,-6.257033,,,,
8220DB004498,4498,John Paul Park,,53.366804,-6.30426,,,,
8220DB004499,4499,Dowth Avenue,,53.361568,-6.283223,,,,
8220DB004500,4500,Faussagh Road,,53.364047,-6.283724,,,,
8220DB004501,4501,Faussagh Road,,53.364752,-6.287122,,,,
8220DB004502,4502,Cabra PO,,53.36334,-6.282626,,,,
8220DB004504,4504,Royal Canal Avenue,,53.375823,-6.317279,,,,
8220DB004513,4513,Parnell Street East,,53.353938,-6.257796,,,,
8220DB004514,4514,Saint James's Hospital,,53.34006,-6.29674,,,,
8220DB004515,4515,Saint Luke's Radiation,,53.340705,-6.293732,,,,
8220DB004516,4516,Saint James's Hospital,,53.33995,-6.296871,,,,
8220DB004521,4521,College Green,,53.344301,-6.260171,,,,
8220DB004522,4522,College Green,,53.344262,-6.260608,,,,
8220DB004523,4523,Kinvara Avenue,,53.369146,-6.317362,,,,
8220DB004524,4524,Ashington Avenue,,53.371676,-6.315744,,,,
8220DB004525,4525,Ashington Park,,53.373448,-6.311391,,,,
8220DB004526,4526,Ashington Avenue,,53.372119,-6.315276,,,,
8220DB004527,4527,Rathmines,,53.321613,-6.266859,,,,
8220DB004528,4528,Grove Park,,53.328896,-6.264537,,,,
8220DB004538,4538,Royal Canal Avenue,,53.375728,-6.316907,,,,
8220DB004539,4539,Glenties Park,,53.381673,-6.31084,,,,
8220DB004542,4542,Finglas Place,,53.386664,-6.297097,,,,
8220DB004543,4543,Finglas Place,,53.386249,-6.296993,,,,
8220DB004546,4546,Plunkett Avenue,,53.398453,-6.307589,,,,
8220DB004548,4548,Finglas Place,,53.386236,-6.296061,,,,
8220DB004563,4563,Clarehall Shopping Centre,,53.401669,-6.180979,,,,
8220DB004583,4583,Finglas West,,53.388529,-6.312598,,,,
8220DB004593,4593,Temple View Rise,,53.402504,-6.176807,,,,
8220DB004594,4594,Elmfield Lawn,,53.399245,-6.163532,,,,
8220DB004595,4595,Temple View Avenue,,53.40214,-6.172973,,,,
8220DB004596,4596,Temple View Rise,,53.402338,-6.177085,,,,
8220DB004680,4680,DCU,,53.384966476354,-6.26533840628639,,,,
8220DB004681,4681,Merrion Square South,,53.339726,-6.251557,,,,
8220DB004683,4683,Balbutcher Drive,,53.404713,-6.279591,,,,
8220DB004684,4684,Holles Street,,53.33992,-6.24755,,,,
8220DB004692,4692,Glin Road,,53.400249,-6.205313,,,,
8220DB004693,4693,Stardust Park,,53.397474,-6.208512,,,,
8220DB004694,4694,Coolock Drive,,53.393409,-6.20357,,,,
8220DB004695,4695,Greencastle Parade,,53.392983,-6.197348,,,,
8220DB004696,4696,Adare Road,,53.394308,-6.20233,,,,
8220DB004697,4697,Coolock Drive,,53.393089,-6.203794,,,,
8220DB004698,4698,Adare Avenue,,53.394943,-6.2111,,,,
8220DB004699,4699,Stardust Park,,53.397538,-6.20854,,,,
8220DB004700,4700,Glin Road,,53.400133,-6.205408,,,,
8220DB004720,4720,Aston Quay,,53.346595,-6.260273,,,,
8220DB004725,4725,O'Connell Street Upper,,53.3521156161106,-6.26105453403108,,,,
8220DB004782,4782,Gracefield Road,,53.38251,-6.202571,,,,
8220DB004788,4788,Oakwood Road,,53.396935,-6.292506,,,,
8220DB004791,4791,Killester Avenue,,53.371612,-6.207659,,,,
8220DB004792,4792,Clanawley Road,,53.372799,-6.209503,,,,
8220DB004793,4793,Avila Park,,53.3922672634008,-6.32082537531738,,,,
8220DB004804,4804,Old Grange Abbey,,53.398525,-6.159969,,,,
8220DB004806,4806,Grange Abbey Grove,,53.3983744075009,-6.15314770626,,,,
8220DB004854,4854,Ardee Street,,53.33813,-6.27902,,,,
8220DB004855,4855,O'Donovan Road,,53.334602,-6.279306,,,,
8220DB004856,4856,Donore Avenue,,53.331966,-6.283511,,,,
8220DB004857,4857,Rutledge Terrace,,53.334121,-6.282764,,,,
8220DB004890,4890,Sycamore Road,,53.395168,-6.290863,,,,
8220DB004934,4934,Offaly Road,,53.362857,-6.282855,,,,
8220DB004935,4935,St Attracta Road,,53.364096,-6.283331,,,,
8220DB004936,4936,Newgrange Road,,53.361352,-6.283171,,,,
8220DB004937,4937,Clearstream Court,,53.392672,-6.300511,,,,
8220DB004938,4938,Gofton Hall,,53.390862,-6.298357,,,,
8220DB004962,4962,Mountjoy Square,,53.35704,-6.258495,,,,
8220DB004985,4985,Lanesborough View,,53.402321,-6.291418,,,,
8220DB005007,5007,Convent Lawns,,53.3441883077869,-6.34965960806547,,,,
8220DB005025,5025,The Coombe,,53.339763,-6.277581,,,,
8220DB005026,5026,Armagh Road East,,53.32043,-6.305244,,,,
8220DB005060,5060,Cromcastle Road,,53.397167,-6.224029,,,,
8220DB005061,5061,Dundaniel Road,,53.395697,-6.224872,,,,
8220DB005097,5097,New Street South,,53.338173,-6.27269,,,,
8220DB005099,5099,Saint Luke's Avenue,,53.338982,-6.27581,,,,
8220DB005134,5134,Lally Road,,53.341689,-6.330217,,,,
8220DB005140,5140,Mayor Street Lower,,53.351124,-6.245532,,,,
8220DB005144,5144,Marian School,,53.372709,-6.306205,,,,
8220DB005145,5145,Rathbourne Avenue,,53.377197,-6.326754,,,,
8220DB005147,5147,Marian College,,53.371823,-6.305834,,,,
8220DB005148,5148,Bangor Road,,53.324946,-6.301057,,,,
8220DB005149,5149,Errigal Road,,53.329087,-6.323743,,,,
8220DB005154,5154,Grange Abbey Drive,,53.3982344046148,-6.15688332123315,,,,
8220DB005155,5155,Grange Abbey Drive,,53.3983316747197,-6.15561587912519,,,,
8220DB005157,5157,Grange Abbey Grove,,53.398169,-6.153818,,,,
8220DB005160,5160,Grange Abbey Cresc,,53.3984955990732,-6.15924812988582,,,,
8220DB005174,5174,Dundaniel Road,,53.395709,-6.225098,,,,
8220DB005192,5192,Fleet Street,,53.3459563040628,-6.25780560959643,,,,
8220DB006004,6004,Parnell Street,,53.352908,-6.260511,,,,
8220DB006016,6016,Balbutcher Lane,,53.401116,-6.267043,,,,
8220DB006017,6017,Gallaun Road,,53.4026543424038,-6.27335698367756,,,,
8220DB006020,6020,Barnville Green,,53.3380691559552,-6.37664091663015,,,,
8220DB006021,6021,Cherry Orchard Avenue,,53.3382012527256,-6.3771014220017,,,,
8220DB006023,6023,Cedar Brook Place,,53.3372994358073,-6.37886256841243,,,,
8220DB006024,6024,Cedar Brook Place,,53.337373,-6.378965,,,,
8220DB006025,6025,Barnville Walk,,53.335864,-6.379052,,,,
8220DB006026,6026,Barnville Walk,,53.3355919772488,-6.37954298308528,,,,
8220DB006027,6027,Park West Station,,53.3345546216258,-6.37860629728981,,,,
8220DB006028,6028,Park West Station,,53.3345956536856,-6.37898013072488,,,,
8220DB006029,6029,Park West Hotel,,53.3325082489382,-6.37485512551023,,,,
8220DB006030,6030,Park West Hotel,,53.332947,-6.37604,,,,
8220DB006042,6042,Church Avenue,,53.320148,-6.264982,,,,
8220DB006059,6059,The Spire of Dublin,,53.3502244282714,-6.26018517538052,,,,
8220DB006068,6068,Ratoath Drive,,53.390282,-6.3171,,,,
8220DB006070,6070,O'Hogan Road,,53.3408852096878,-6.33703699120924,,,,
8220DB006071,6071,Parnell Street,,53.353091,-6.260114,,,,
8220DB006074,6074,Earlsfort Terrace,,53.335886,-6.25754,,,,
8220DB006078,6078,Cromcastle Road,,53.397242,-6.224222,,,,
8220DB006079,6079,Elmfield Lawn,,53.399408,-6.16363,,,,
8220DB006094,6094,Errigal Gardens,,53.32583,-6.321634,,,,
8220DB006115,6115,Belcamp Lane,,53.400127,-6.184218,,,,
8220DB006122,6122,St Pappin's Road,,53.3863727059693,-6.27430166369762,,,,
8220DB006125,6125,Poppintree Parade,,53.3998824003142,-6.27683792298323,,,,
8220DB006130,6130,Ferrycarrig Park,,53.40087,-6.200639,,,,
8220DB006140,6140,Parkmore Estate,,53.32353,-6.342891,,,,
8220DB006142,6142,Walkinstown Avenue,,53.323732,-6.343243,,,,
8220DB006182,6182,Santry Cross,,53.4022507542153,-6.26535718879149,,,,
8220DB006238,6238,Ballymun,,53.401192,-6.266724,,,,
8220DB006239,6239,Dolmen Court,,53.398042,-6.271393,,,,
8220DB006241,6241,Crannogue Road,,53.4018159228276,-6.27940673236037,,,,
8220DB006251,6251,Sheriff Street,,53.350394,-6.238668,,,,
8220DB006252,6252,Sean O'Casey Bridge,,53.347965,-6.247044,,,,
8220DB006253,6253,Balbutcher Drive,,53.403959,-6.281516,,,,
8220DB006273,6273,Sycamore Road,,53.395275,-6.290858,,,,
8220DB006276,6276,Seagrave Rise,,53.406094,-6.291929,,,,
8220DB006315,6315,The Hole in the Wall Road,,53.401474,-6.162413,,,,
8220DB006316,6316,Clongriffin Village,,53.402915,-6.157343,,,,
8220DB006317,6317,Clongriffin Station,,53.402842,-6.15145,,,,
8220DB006318,6318,Clongriffin Station,,53.402314,-6.150992,,,,
8220DB006320,6320,The Hole in the Wall Road,,53.401597,-6.162167,,,,
8220DB006361,6361,Seagrave Rise,,53.405949,-6.291799,,,,
8220DB006362,6362,Hampton Wood,,53.406501,-6.289551,,,,
8220DB006363,6363,Hampton Wood,,53.4061452136693,-6.28795578802029,,,,
8220DB006367,6367,Lanesborough Avenue,,53.403876,-6.291446,,,,
8220DB007000,7000,St. John's Church,,53.3244587169169,-6.2117830674682,,,,
8220DB007009,7009,Rathvilly Drive,,53.380928,-6.31598,,,,
8220DB007010,7010,Rathvilly Drive,,53.38203,-6.31689,,,,
8220DB007012,7012,Memorial Gardens,,53.342954,-6.315375,,,,
8220DB007027,7027,Glasnevin Park,,53.376594,-6.312048,,,,
8220DB007028,7028,Royal Canal Centre,,53.37655,-6.31106,,,,
8220DB007043,7043,Drimnagh Road,,53.325061,-6.318692,,,,
8220DB007044,7044,Aulden Grange,,53.3974093697435,-6.2324855678718,,,,
8220DB007053,7053,Nutley Lane,,53.318374,-6.213584,,,,
8220DB007078,7078,Parkgate Street,,53.34791,-6.292874,,,,
8220DB007092,7092,Dolmen Court,,53.3981870002067,-6.27209420381958,,,,
8220DB007112,7112,Larch Hill,,53.397549,-6.229171,,,,
8220DB007113,7113,Northwood Avenue,,53.4025410678868,-6.26492426394681,,,,
8220DB007130,7130,Cromcastle Green,,53.393073,-6.220696,,,,
8220DB007191,7191,Balbutcher Way,,53.404613,-6.276388,,,,
8220DB007192,7192,Balbutcher Way,,53.4038223134095,-6.27518970826945,,,,
8220DB007199,7199,Blunden Drive,,53.396645,-6.182802,,,,
8220DB007213,7213,Mayeston,,53.4062,-6.28487,,,,
8220DB007216,7216,North Wall Quay,,53.347804396268,-6.24285992766227,,,,
8220DB007220,7220,Hillcrest Park,,53.388877,-6.275298,,,,
8220DB007236,7236,Grange Lodge Avenue,,53.402847,-6.154668,,,,
8220DB007245,7245,Clongriffin Station,,53.402647,-6.152165,,,,
8220DB007246,7246,Clongriffin Village,,53.402761,-6.157244,,,,
8220DB007274,7274,Operations Depot,,53.405911,-6.269239,,,,
8220DB007275,7275,Dublin City Council North City Operations Depot,,53.405752,-6.268825,,,,
8220DB007276,7276,Baile na Laochra,,53.406106,-6.280843,,,,
8220DB007277,7277,Baile na Laochra,,53.40592,-6.28043,,,,
8220DB007293,7293,Westbourne Road,,53.306182,-6.28359,,,,
8220DB007333,7333,Mespil Hotel,,53.33299,-6.246983,,,,
8220DB007339,7339,Burlington Road,,53.332408,-6.246541,,,,
8220DB007340,7340,Wilton Terrace,,53.33402,-6.24719,,,,
8220DB007358,7358,Castletimon Park,,53.39546,-6.229544,,,,
8220DB007359,7359,Eden Quay,,53.347924,-6.257985,,,,
8220DB007370,7370,Burlington Road,,53.33149,-6.24573,,,,
8220DB007391,7391,Merrion Square South,,53.339091,-6.249916,,,,
8220DB007392,7392,Aston Quay,,53.346439,-6.261122,,,,
8220DB007396,7396,Crescent Park,,53.376109,-6.321612,,,,
8220DB007397,7397,Samuel Beckett Bridge,,53.347694,-6.2433,,,,
8220DB007398,7398,Convention Centre,,53.347499,-6.239853,,,,
8220DB007399,7399,The Point,,53.348493,-6.226864,,,,
8220DB007412,7412,The Coombe,,53.339892,-6.278417,,,,
8220DB007413,7413,Dean Street,,53.33963,-6.27538,,,,
8220DB007414,7414,Windmill Road,,53.325159,-6.311017,,,,
8220DB007423,7423,Ballygall Parade,,53.3856751986919,-6.28828123187413,,,,
8220DB007424,7424,Ballygall Place,,53.3880117312502,-6.29202130024755,,,,
8220DB007425,7425,Ballygall Road West,,53.388879,-6.292934,,,,
8220DB007426,7426,Ballygall Parade,,53.385456,-6.288064,,,,
8220DB007427,7427,Ballygall Place,,53.3877967874391,-6.29207500951525,,,,
8220DB007428,7428,Ballygall Road West,,53.38909,-6.293241,,,,
8220DB007435,7435,Memorial Gardens,,53.343179,-6.315381,,,,
8220DB007438,7438,Herberton Drive,,53.331936,-6.297746,,,,
8220DB007439,7439,Herberton Drive,,53.332362,-6.297999,,,,
8220DB007453,7453,Arran Quay,,53.3463358924171,-6.27838250402176,,,,
8220DB007454,7454,Herberton Road,,53.335008,-6.298855,,,,
8220DB007455,7455,Herberton Road,,53.335575,-6.298878,,,,
8220DB007458,7458,Collins Drive,,53.3900665526326,-6.2905257060846,,,,
8220DB007469,7469,Baymount Park,,53.36782,-6.174197,,,,
8220DB007471,7471,Tolka Valley Green,,53.379257,-6.293244,,,,
8220DB007507,7507,St Ultans School,,53.337412,-6.373227,,,,
8220DB007512,7512,John Rogersons Quay,,53.34586,-6.237187,,,,
8220DB007513,7513,Phoenix Park,,53.350896,-6.296795,,,,
8220DB007514,7514,Bargy Road,,53.354235,-6.230046,,,,
8220DB007516,7516,Temple View Avenue,,53.402076,-6.171727,,,,
8220DB007557,7557,Hanover Quay,,53.344208,-6.2367,,,,
8220DB007564,7564,Poolbeg Street,,53.34678,-6.25461,,,,
8220DB007569,7569,Gardiner Street,,53.350451,-6.25597,,,,
8220DB007571,7571,DCU Helix,,53.386776,-6.258725,,,,
8220DB007577,7577,Camden Street Lower,,53.333833,-6.265297,,,,
8220DB007578,7578,South Great George's Street,,53.34246,-6.264601,,,,
8220DB007579,7579,Redmond's Hill,,53.3382457820886,-6.26591384363472,,,,
8220DB007581,7581,College Green,,53.344159,-6.263346,,,,
8220DB007582,7582,College Green,,53.344322,-6.262228,,,,
8220DB007585,7585,National Gallery,,53.342037,-6.253475,,,,
8220DB007586,7586,National Gallery,,53.341971,-6.253222,,,,
8220DB007587,7587,Shaw Street,,53.344458,-6.251228,,,,
8220DB007588,7588,Pearse Street,,53.344985,-6.254075,,,,
8220DB007591,7591,Abbey Street Lower,,53.34889,-6.25683,,,,
8220DB007599,7599,Gilford Road,,53.330317,-6.217048,,,,
8220DB007601,7601,Tolka Quay Road,,53.351875,-6.210125,,,,
8220DB007602,7602,Saint Patrick's Campus,,53.371553,-6.25344,,,,
8220DB007603,7603,Saint Patrick's Campus,,53.371577,-6.253183,,,,
8220DB007611,7611,North Wall Quay,,53.34727,-6.23661,,,,
8220DB007622,7622,Bachelors Walk,,53.34707,-6.26144,,,,
8220DB007623,7623,The Point,,53.346861,-6.228878,,,,
8220DB007661,7661,Barry Avenue,,53.3952,-6.31103,,,,
8220DB007665,7665,Poolbeg Street,,53.346822,-6.256779,,,,
8220DB007668,7668,Charleston Road,,53.324134,-6.257884,,,,
8220DB007671,7671,Sean MacDermott Street,,53.35375,-6.25289,,,,
8220DB007672,7672,Broombridge,,53.372426,-6.298882,,,,
8220DB007686,7686,Broombridge,,53.372465,-6.299106,,,,
8220DB007698,7698,IKEA Ballymun,,53.40643,-6.27476,,,,
8220DB007701,7701,Rathvilly Road,,53.38327,-6.31671,,,,
8220DB007702,7702,River Road,,53.37757,-6.31037,,,,
8220DB007703,7703,River Road,,53.37771,-6.31031,,,,
8220DB007726,7726,St Anne's Pitches,,53.3768149943731,-6.17028422749077,,,,
8220DB007727,7727,St Anne's Pitches,,53.376821,-6.170074,,,,
8220DB007728,7728,Watermill Road,,53.3747377159579,-6.16611974032854,,,,
8220DB007729,7729,Causeway Road,,53.3746492576719,-6.16562754568855,,,,
8220DB007730,7730,Fox's Lane,,53.379397,-6.155848,,,,
8220DB007731,7731,Fox's Lane,,53.379793,-6.155275,,,,
8220DB007732,7732,Tara Street,,53.347221,-6.255171,,,,
8220DB007733,7733,Moss Street,,53.347011,-6.25186,,,,
8220DB007738,7738,Gilford Road,,53.329199312072,-6.21443745026226,,,,
8220DB007739,7739,Park Avenue,,53.32713,-6.21461,,,,
8220DB007740,7740,Park Avenue,,53.32777,-6.21473,,,,
8220DB007741,7741,Gilford Road,,53.32936,-6.21494,,,,
8220DB007827,7827,Eastpoint,,53.360514,-6.230534,,,,
8220DB007830,7830,Whitehall Colmcille,,53.380751,-6.2377,,,,
8220DB007831,7831,Whitehall Colmcille,,53.38117,-6.239923,,,,
8220DB007832,7832,Grove Park Road,,53.390415,-6.286602,,,,
8220DB007833,7833,East Wall Road,,53.356574,-6.231742,,,,
